{
"type": "FeatureCollection",
"crs": { "type": "name", "properties": { "name": "urn:ogc:def:crs:OGC:1.3:CRS84" } },
"features": [
{ "type": "Feature", "properties": { "FID": 81891, "NCESSCH": "480000811280", "LEAID": "4800008", "NAME": "ROOSTER SPRINGS EL", "OPSTFIPS": "48", "STREET": "1001 BELTERRA DR", "CITY": "AUSTIN", "STATE": "TX", "ZIP": "78737", "STFIP": "48", "CNTY": "48209", "NMCNTY": "Hays County", "LOCALE": "41", "LAT": 30.192173, "LON": -97.982914, "CBSA": "12420", "NMCBSA": "Austin-Round Rock, TX", "CBSATYPE": "1", "CSA": "N", "NMCSA": "N", "NECTA": "N", "NMNECTA": "N", "CD": "4825", "SLDL": "48045", "SLDU": "48025", "SCHOOLYEAR": "2018-2019" }, "geometry": { "type": "Point", "coordinates": [ -97.982921681999983, 30.192178192000029 ] } },
{ "type": "Feature", "properties": { "FID": 81892, "NCESSCH": "480000813086", "LEAID": "4800008", "NAME": "SYCAMORE SPRINGS EL", "OPSTFIPS": "48", "STREET": "14451 SAWYER RANCH RD", "CITY": "AUSTIN", "STATE": "TX", "ZIP": "78737", "STFIP": "48", "CNTY": "48209", "NMCNTY": "Hays County", "LOCALE": "41", "LAT": 30.178573, "LON": -98.000246, "CBSA": "12420", "NMCBSA": "Austin-Round Rock, TX", "CBSATYPE": "1", "CSA": "N", "NMCSA": "N", "NECTA": "N", "NMNECTA": "N", "CD": "4825", "SLDL": "48045", "SLDU": "48025", "SCHOOLYEAR": "2018-2019" }, "geometry": { "type": "Point", "coordinates": [ -98.000253684999961, 30.178578189000064 ] } },
{ "type": "Feature", "properties": { "FID": 81893, "NCESSCH": "480000813151", "LEAID": "4800008", "NAME": "SYCAMORE SPRINGS MIDDLE", "OPSTFIPS": "48", "STREET": "14451 SAWYER RANCH RD", "CITY": "AUSTIN", "STATE": "TX", "ZIP": "78737", "STFIP": "48", "CNTY": "48209", "NMCNTY": "Hays County", "LOCALE": "41", "LAT": 30.178573, "LON": -98.000246, "CBSA": "12420", "NMCBSA": "Austin-Round Rock, TX", "CBSATYPE": "1", "CSA": "N", "NMCSA": "N", "NECTA": "N", "NMNECTA": "N", "CD": "4825", "SLDL": "48045", "SLDU": "48025", "SCHOOLYEAR": "2018-2019" }, "geometry": { "type": "Point", "coordinates": [ -98.000253684999961, 30.178578189000064 ] } },
{ "type": "Feature", "properties": { "FID": 81942, "NCESSCH": "480001609410", "LEAID": "4800016", "NAME": "AUSTIN CAN ACADEMY", "OPSTFIPS": "48", "STREET": "2406 ROSEWOOD AVE", "CITY": "AUSTIN", "STATE": "TX", "ZIP": "78702", "STFIP": "48", "CNTY": "48453", "NMCNTY": "Travis County", "LOCALE": "11", "LAT": 30.272213, "LON": -97.708946, "CBSA": "12420", "NMCBSA": "Austin-Round Rock, TX", "CBSATYPE": "1", "CSA": "N", "NMCSA": "N", "NECTA": "N", "NMNECTA": "N", "CD": "4825", "SLDL": "48046", "SLDU": "48014", "SCHOOLYEAR": "2018-2019" }, "geometry": { "type": "Point", "coordinates": [ -97.708953616999963, 30.272218218000035 ] } },
{ "type": "Feature", "properties": { "FID": 82016, "NCESSCH": "480004408055", "LEAID": "4800044", "NAME": "WAYSIDE EDEN PARK ACADEMY", "OPSTFIPS": "48", "STREET": "6215 MANCHACA RD", "CITY": "AUSTIN", "STATE": "TX", "ZIP": "78745", "STFIP": "48", "CNTY": "48453", "NMCNTY": "Travis County", "LOCALE": "11", "LAT": 30.209069, "LON": -97.802914, "CBSA": "12420", "NMCBSA": "Austin-Round Rock, TX", "CBSATYPE": "1", "CSA": "N", "NMCSA": "N", "NECTA": "N", "NMNECTA": "N", "CD": "4821", "SLDL": "48049", "SLDU": "48014", "SCHOOLYEAR": "2018-2019" }, "geometry": { "type": "Point", "coordinates": [ -97.802921637999987, 30.209074202000068 ] } },
{ "type": "Feature", "properties": { "FID": 82017, "NCESSCH": "480004412758", "LEAID": "4800044", "NAME": "WAYSIDE REAL LEARNING ACADEMY", "OPSTFIPS": "48", "STREET": "6405 S IH 35", "CITY": "AUSTIN", "STATE": "TX", "ZIP": "78744", "STFIP": "48", "CNTY": "48453", "NMCNTY": "Travis County", "LOCALE": "11", "LAT": 30.191454, "LON": -97.767058, "CBSA": "12420", "NMCBSA": "Austin-Round Rock, TX", "CBSATYPE": "1", "CSA": "N", "NMCSA": "N", "NECTA": "N", "NMNECTA": "N", "CD": "4835", "SLDL": "48051", "SLDU": "48021", "SCHOOLYEAR": "2018-2019" }, "geometry": { "type": "Point", "coordinates": [ -97.767065628999944, 30.191459200000054 ] } },
{ "type": "Feature", "properties": { "FID": 82018, "NCESSCH": "480004412927", "LEAID": "4800044", "NAME": "WAYSIDE SCI-TECH MIDDLE AND H S", "OPSTFIPS": "48", "STREET": "6405 S IH 35", "CITY": "AUSTIN", "STATE": "TX", "ZIP": "78744", "STFIP": "48", "CNTY": "48453", "NMCNTY": "Travis County", "LOCALE": "11", "LAT": 30.191454, "LON": -97.767058, "CBSA": "12420", "NMCBSA": "Austin-Round Rock, TX", "CBSATYPE": "1", "CSA": "N", "NMCSA": "N", "NECTA": "N", "NMNECTA": "N", "CD": "4835", "SLDL": "48051", "SLDU": "48021", "SCHOOLYEAR": "2018-2019" }, "geometry": { "type": "Point", "coordinates": [ -97.767065628999944, 30.191459200000054 ] } },
{ "type": "Feature", "properties": { "FID": 82019, "NCESSCH": "480004413290", "LEAID": "4800044", "NAME": "WAYSIDE ALTAMIRA ACADEMY", "OPSTFIPS": "48", "STREET": "10704 BRADSHAW RD", "CITY": "AUSTIN", "STATE": "TX", "ZIP": "78747", "STFIP": "48", "CNTY": "48453", "NMCNTY": "Travis County", "LOCALE": "11", "LAT": 30.136921, "LON": -97.776793, "CBSA": "12420", "NMCBSA": "Austin-Round Rock, TX", "CBSATYPE": "1", "CSA": "N", "NMCSA": "N", "NECTA": "N", "NMNECTA": "N", "CD": "4821", "SLDL": "48047", "SLDU": "48025", "SCHOOLYEAR": "2018-2019" }, "geometry": { "type": "Point", "coordinates": [ -97.77680062799999, 30.136926189000064 ] } },
{ "type": "Feature", "properties": { "FID": 82044, "NCESSCH": "480005808056", "LEAID": "4800058", "NAME": "NYOS CHARTER SCHOOL", "OPSTFIPS": "48", "STREET": "12301 N LAMAR BLVD", "CITY": "AUSTIN", "STATE": "TX", "ZIP": "78753", "STFIP": "48", "CNTY": "48453", "NMCNTY": "Travis County", "LOCALE": "11", "LAT": 30.402255, "LON": -97.678514, "CBSA": "12420", "NMCBSA": "Austin-Round Rock, TX", "CBSATYPE": "1", "CSA": "N", "NMCSA": "N", "NECTA": "N", "NMNECTA": "N", "CD": "4810", "SLDL": "48050", "SLDU": "48014", "SCHOOLYEAR": "2018-2019" }, "geometry": { "type": "Point", "coordinates": [ -97.678521616999944, 30.402260244000047 ] } },
{ "type": "Feature", "properties": { "FID": 82045, "NCESSCH": "480005809070", "LEAID": "4800058", "NAME": "NYOS - MAGNOLIA MCCULLOUGH CAMPUS", "OPSTFIPS": "48", "STREET": "1605 KRAMER LN", "CITY": "AUSTIN", "STATE": "TX", "ZIP": "78758", "STFIP": "48", "CNTY": "48453", "NMCNTY": "Travis County", "LOCALE": "11", "LAT": 30.384637, "LON": -97.702805, "CBSA": "12420", "NMCBSA": "Austin-Round Rock, TX", "CBSATYPE": "1", "CSA": "N", "NMCSA": "N", "NECTA": "N", "NMNECTA": "N", "CD": "4810", "SLDL": "48049", "SLDU": "48014", "SCHOOLYEAR": "2018-2019" }, "geometry": { "type": "Point", "coordinates": [ -97.702812620999964, 30.384642240000062 ] } },
{ "type": "Feature", "properties": { "FID": 82059, "NCESSCH": "480006408059", "LEAID": "4800064", "NAME": "CHAPARRAL STAR ACADEMY", "OPSTFIPS": "48", "STREET": "14046 SUMMIT DR", "CITY": "AUSTIN", "STATE": "TX", "ZIP": "78728", "STFIP": "48", "CNTY": "48453", "NMCNTY": "Travis County", "LOCALE": "21", "LAT": 30.43798, "LON": -97.691775, "CBSA": "12420", "NMCBSA": "Austin-Round Rock, TX", "CBSATYPE": "1", "CSA": "N", "NMCSA": "N", "NECTA": "N", "NMNECTA": "N", "CD": "4817", "SLDL": "48050", "SLDU": "48014", "SCHOOLYEAR": "2018-2019" }, "geometry": { "type": "Point", "coordinates": [ -97.691782621999948, 30.437985251000043 ] } },
{ "type": "Feature", "properties": { "FID": 82063, "NCESSCH": "480006608057", "LEAID": "4800066", "NAME": "TEXAS EMPOWERMENT ACADEMY", "OPSTFIPS": "48", "STREET": "6414 N HAMPTON DR", "CITY": "AUSTIN", "STATE": "TX", "ZIP": "78724", "STFIP": "48", "CNTY": "48453", "NMCNTY": "Travis County", "LOCALE": "11", "LAT": 30.314579, "LON": -97.68143, "CBSA": "12420", "NMCBSA": "Austin-Round Rock, TX", "CBSATYPE": "1", "CSA": "N", "NMCSA": "N", "NECTA": "N", "NMNECTA": "N", "CD": "4825", "SLDL": "48046", "SLDU": "48014", "SCHOOLYEAR": "2018-2019" }, "geometry": { "type": "Point", "coordinates": [ -97.681437612999957, 30.314584227000068 ] } },
{ "type": "Feature", "properties": { "FID": 82064, "NCESSCH": "480006612411", "LEAID": "4800066", "NAME": "TEXAS EMPOWERMENT ACADEMY EL", "OPSTFIPS": "48", "STREET": "3613 BLUESTEIN DR", "CITY": "AUSTIN", "STATE": "TX", "ZIP": "78721", "STFIP": "48", "CNTY": "48453", "NMCNTY": "Travis County", "LOCALE": "11", "LAT": 30.273004, "LON": -97.672422, "CBSA": "12420", "NMCBSA": "Austin-Round Rock, TX", "CBSATYPE": "1", "CSA": "N", "NMCSA": "N", "NECTA": "N", "NMNECTA": "N", "CD": "4825", "SLDL": "48046", "SLDU": "48014", "SCHOOLYEAR": "2018-2019" }, "geometry": { "type": "Point", "coordinates": [ -97.672429607999959, 30.273009220000063 ] } },
{ "type": "Feature", "properties": { "FID": 82072, "NCESSCH": "480007108383", "LEAID": "4800071", "NAME": "SETTLEMENT HOME", "OPSTFIPS": "48", "STREET": "1600 PAYTON GIN RD", "CITY": "AUSTIN", "STATE": "TX", "ZIP": "78758", "STFIP": "48", "CNTY": "48453", "NMCNTY": "Travis County", "LOCALE": "11", "LAT": 30.365126, "LON": -97.713402, "CBSA": "12420", "NMCBSA": "Austin-Round Rock, TX", "CBSATYPE": "1", "CSA": "N", "NMCSA": "N", "NECTA": "N", "NMNECTA": "N", "CD": "4810", "SLDL": "48049", "SLDU": "48014", "SCHOOLYEAR": "2018-2019" }, "geometry": { "type": "Point", "coordinates": [ -97.713409622999961, 30.365131236000025 ] } },
{ "type": "Feature", "properties": { "FID": 82074, "NCESSCH": "480007109072", "LEAID": "4800071", "NAME": "GEORGE M KOZMETSKY SCHOOL", "OPSTFIPS": "48", "STREET": "2200 E 6TH ST", "CITY": "AUSTIN", "STATE": "TX", "ZIP": "78702", "STFIP": "48", "CNTY": "48453", "NMCNTY": "Travis County", "LOCALE": "11", "LAT": 30.260299, "LON": -97.717419, "CBSA": "12420", "NMCBSA": "Austin-Round Rock, TX", "CBSATYPE": "1", "CSA": "N", "NMCSA": "N", "NECTA": "N", "NMNECTA": "N", "CD": "4835", "SLDL": "48051", "SLDU": "48014", "SCHOOLYEAR": "2018-2019" }, "geometry": { "type": "Point", "coordinates": [ -97.71742661899998, 30.260304215000076 ] } },
{ "type": "Feature", "properties": { "FID": 82077, "NCESSCH": "480007109408", "LEAID": "4800071", "NAME": "TNC CAMPUS (TEXAS NEUROREHABILITATION CENTER)", "OPSTFIPS": "48", "STREET": "1106 W DITTMAR RD", "CITY": "AUSTIN", "STATE": "TX", "ZIP": "78745", "STFIP": "48", "CNTY": "48453", "NMCNTY": "Travis County", "LOCALE": "11", "LAT": 30.188756, "LON": -97.806892, "CBSA": "12420", "NMCBSA": "Austin-Round Rock, TX", "CBSATYPE": "1", "CSA": "N", "NMCSA": "N", "NECTA": "N", "NMNECTA": "N", "CD": "4821", "SLDL": "48048", "SLDU": "48021", "SCHOOLYEAR": "2018-2019" }, "geometry": { "type": "Point", "coordinates": [ -97.806899637999948, 30.188761198000066 ] } },
{ "type": "Feature", "properties": { "FID": 82082, "NCESSCH": "480007112104", "LEAID": "4800071", "NAME": "HELPING HAND", "OPSTFIPS": "48", "STREET": "3804 AVE B", "CITY": "AUSTIN", "STATE": "TX", "ZIP": "78751", "STFIP": "48", "CNTY": "48453", "NMCNTY": "Travis County", "LOCALE": "11", "LAT": 30.30235, "LON": -97.736581, "CBSA": "12420", "NMCBSA": "Austin-Round Rock, TX", "CBSATYPE": "1", "CSA": "N", "NMCSA": "N", "NECTA": "N", "NMNECTA": "N", "CD": "4825", "SLDL": "48049", "SLDU": "48014", "SCHOOLYEAR": "2018-2019" }, "geometry": { "type": "Point", "coordinates": [ -97.736588625999957, 30.302355223000063 ] } },
{ "type": "Feature", "properties": { "FID": 82085, "NCESSCH": "480007113287", "LEAID": "4800071", "NAME": "AUSTIN OAKS", "OPSTFIPS": "48", "STREET": "1407 W STASSNEY LN", "CITY": "AUSTIN", "STATE": "TX", "ZIP": "78745", "STFIP": "48", "CNTY": "48453", "NMCNTY": "Travis County", "LOCALE": "11", "LAT": 30.21137, "LON": -97.792422, "CBSA": "12420", "NMCBSA": "Austin-Round Rock, TX", "CBSATYPE": "1", "CSA": "N", "NMCSA": "N", "NECTA": "N", "NMNECTA": "N", "CD": "4835", "SLDL": "48048", "SLDU": "48021", "SCHOOLYEAR": "2018-2019" }, "geometry": { "type": "Point", "coordinates": [ -97.792429635999952, 30.211375203000046 ] } },
{ "type": "Feature", "properties": { "FID": 82086, "NCESSCH": "480007113292", "LEAID": "4800071", "NAME": "UNIVERSITY H S", "OPSTFIPS": "48", "STREET": "2007 UNIVERSITY DR", "CITY": "AUSTIN", "STATE": "TX", "ZIP": "78705", "STFIP": "48", "CNTY": "48453", "NMCNTY": "Travis County", "LOCALE": "11", "LAT": 30.283258, "LON": -97.739251, "CBSA": "12420", "NMCBSA": "Austin-Round Rock, TX", "CBSATYPE": "1", "CSA": "N", "NMCSA": "N", "NECTA": "N", "NMNECTA": "N", "CD": "4825", "SLDL": "48049", "SLDU": "48014", "SCHOOLYEAR": "2018-2019" }, "geometry": { "type": "Point", "coordinates": [ -97.73925862599998, 30.283263219000048 ] } },
{ "type": "Feature", "properties": { "FID": 82091, "NCESSCH": "480007113669", "LEAID": "4800071", "NAME": "MUNDAY", "OPSTFIPS": "48", "STREET": "4800 MANOR RD", "CITY": "AUSTIN", "STATE": "TX", "ZIP": "78723", "STFIP": "48", "CNTY": "48453", "NMCNTY": "Travis County", "LOCALE": "11", "LAT": 30.295959, "LON": -97.69066, "CBSA": "12420", "NMCBSA": "Austin-Round Rock, TX", "CBSATYPE": "1", "CSA": "N", "NMCSA": "N", "NECTA": "N", "NMNECTA": "N", "CD": "4825", "SLDL": "48046", "SLDU": "48014", "SCHOOLYEAR": "2018-2019" }, "geometry": { "type": "Point", "coordinates": [ -97.690667613999949, 30.295964223000055 ] } },
{ "type": "Feature", "properties": { "FID": 82094, "NCESSCH": "480007113838", "LEAID": "4800071", "NAME": "THE REFUGE", "OPSTFIPS": "48", "STREET": "2200 E 6TH ST", "CITY": "AUSTIN", "STATE": "TX", "ZIP": "78702", "STFIP": "48", "CNTY": "48453", "NMCNTY": "Travis County", "LOCALE": "11", "LAT": 30.260299, "LON": -97.717419, "CBSA": "12420", "NMCBSA": "Austin-Round Rock, TX", "CBSATYPE": "1", "CSA": "N", "NMCSA": "N", "NECTA": "N", "NMNECTA": "N", "CD": "4835", "SLDL": "48051", "SLDU": "48014", "SCHOOLYEAR": "2018-2019" }, "geometry": { "type": "Point", "coordinates": [ -97.71742661899998, 30.260304215000076 ] } },
{ "type": "Feature", "properties": { "FID": 82194, "NCESSCH": "480016312790", "LEAID": "4800163", "NAME": "VISTA ACADEMY OF AUSTIN-MUELLER", "OPSTFIPS": "48", "STREET": "1504 E 51ST ST BLDG E", "CITY": "AUSTIN", "STATE": "TX", "ZIP": "78723", "STFIP": "48", "CNTY": "48453", "NMCNTY": "Travis County", "LOCALE": "11", "LAT": 30.3059, "LON": -97.701401, "CBSA": "12420", "NMCBSA": "Austin-Round Rock, TX", "CBSATYPE": "1", "CSA": "N", "NMCSA": "N", "NECTA": "N", "NMNECTA": "N", "CD": "4825", "SLDL": "48046", "SLDU": "48014", "SCHOOLYEAR": "2018-2019" }, "geometry": { "type": "Point", "coordinates": [ -97.70140861699997, 30.30590522500006 ] } },
{ "type": "Feature", "properties": { "FID": 82228, "NCESSCH": "480017912987", "LEAID": "4800179", "NAME": "JUBILEE WELLS BRANCH", "OPSTFIPS": "48", "STREET": "15201 BURNET RD", "CITY": "AUSTIN", "STATE": "TX", "ZIP": "78728", "STFIP": "48", "CNTY": "48453", "NMCNTY": "Travis County", "LOCALE": "21", "LAT": 30.458738, "LON": -97.693425, "CBSA": "12420", "NMCBSA": "Austin-Round Rock, TX", "CBSATYPE": "1", "CSA": "N", "NMCSA": "N", "NECTA": "N", "NMNECTA": "N", "CD": "4817", "SLDL": "48050", "SLDU": "48014", "SCHOOLYEAR": "2018-2019" }, "geometry": { "type": "Point", "coordinates": [ -97.693432622999978, 30.458743254000069 ] } },
{ "type": "Feature", "properties": { "FID": 82245, "NCESSCH": "480019412933", "LEAID": "4800194", "NAME": "TEXAS PREPARATORY SCHOOL - AUSTIN CAMPUS", "OPSTFIPS": "48", "STREET": "7540 ED BLUESTEIN BLVD", "CITY": "AUSTIN", "STATE": "TX", "ZIP": "78723", "STFIP": "48", "CNTY": "48453", "NMCNTY": "Travis County", "LOCALE": "11", "LAT": 30.323646, "LON": -97.672691, "CBSA": "12420", "NMCBSA": "Austin-Round Rock, TX", "CBSATYPE": "1", "CSA": "N", "NMCSA": "N", "NECTA": "N", "NMNECTA": "N", "CD": "4825", "SLDL": "48046", "SLDU": "48014", "SCHOOLYEAR": "2018-2019" }, "geometry": { "type": "Point", "coordinates": [ -97.672698611999976, 30.323651229000063 ] } },
{ "type": "Feature", "properties": { "FID": 82267, "NCESSCH": "480020708308", "LEAID": "4800207", "NAME": "PREMIER H S AMERICAN YOUTHWORKS", "OPSTFIPS": "48", "STREET": "1901 E BEN WHITE BLVD", "CITY": "AUSTIN", "STATE": "TX", "ZIP": "78741", "STFIP": "48", "CNTY": "48453", "NMCNTY": "Travis County", "LOCALE": "11", "LAT": 30.215556, "LON": -97.747353, "CBSA": "12420", "NMCBSA": "Austin-Round Rock, TX", "CBSATYPE": "1", "CSA": "N", "NMCSA": "N", "NECTA": "N", "NMNECTA": "N", "CD": "4835", "SLDL": "48051", "SLDU": "48021", "SCHOOLYEAR": "2018-2019" }, "geometry": { "type": "Point", "coordinates": [ -97.747360624999942, 30.215561205000029 ] } },
{ "type": "Feature", "properties": { "FID": 82277, "NCESSCH": "480020709350", "LEAID": "4800207", "NAME": "PREMIER H S OF AUSTIN", "OPSTFIPS": "48", "STREET": "1701 W BEN WHITE BLVD NO 100A", "CITY": "AUSTIN", "STATE": "TX", "ZIP": "78704", "STFIP": "48", "CNTY": "48453", "NMCNTY": "Travis County", "LOCALE": "11", "LAT": 30.22643, "LON": -97.783682, "CBSA": "12420", "NMCBSA": "Austin-Round Rock, TX", "CBSATYPE": "1", "CSA": "N", "NMCSA": "N", "NECTA": "N", "NMNECTA": "N", "CD": "4821", "SLDL": "48049", "SLDU": "48014", "SCHOOLYEAR": "2018-2019" }, "geometry": { "type": "Point", "coordinates": [ -97.783689633999984, 30.226435206000076 ] } },
{ "type": "Feature", "properties": { "FID": 82280, "NCESSCH": "480020712092", "LEAID": "4800207", "NAME": "PREMIER H S OF NORTH AUSTIN", "OPSTFIPS": "48", "STREET": "13801 BURNET RD", "CITY": "AUSTIN", "STATE": "TX", "ZIP": "78727", "STFIP": "48", "CNTY": "48453", "NMCNTY": "Travis County", "LOCALE": "11", "LAT": 30.437618, "LON": -97.696912, "CBSA": "12420", "NMCBSA": "Austin-Round Rock, TX", "CBSATYPE": "1", "CSA": "N", "NMCSA": "N", "NECTA": "N", "NMNECTA": "N", "CD": "4817", "SLDL": "48050", "SLDU": "48014", "SCHOOLYEAR": "2018-2019" }, "geometry": { "type": "Point", "coordinates": [ -97.696919622999985, 30.437623250000058 ] } },
{ "type": "Feature", "properties": { "FID": 82345, "NCESSCH": "480021112928", "LEAID": "4800211", "NAME": "IDEA MONTOPOLIS ACADEMY", "OPSTFIPS": "48", "STREET": "1701 VARGAS RD", "CITY": "AUSTIN", "STATE": "TX", "ZIP": "78741", "STFIP": "48", "CNTY": "48453", "NMCNTY": "Travis County", "LOCALE": "11", "LAT": 30.22629, "LON": -97.699061, "CBSA": "12420", "NMCBSA": "Austin-Round Rock, TX", "CBSATYPE": "1", "CSA": "N", "NMCSA": "N", "NECTA": "N", "NMNECTA": "N", "CD": "4835", "SLDL": "48051", "SLDU": "48021", "SCHOOLYEAR": "2018-2019" }, "geometry": { "type": "Point", "coordinates": [ -97.699068612999952, 30.226295209000057 ] } },
{ "type": "Feature", "properties": { "FID": 82346, "NCESSCH": "480021112940", "LEAID": "4800211", "NAME": "IDEA MONTOPOLIS COLLEGE PREPARATORY", "OPSTFIPS": "48", "STREET": "1701 VARGAS RD", "CITY": "AUSTIN", "STATE": "TX", "ZIP": "78741", "STFIP": "48", "CNTY": "48453", "NMCNTY": "Travis County", "LOCALE": "11", "LAT": 30.22629, "LON": -97.699061, "CBSA": "12420", "NMCBSA": "Austin-Round Rock, TX", "CBSATYPE": "1", "CSA": "N", "NMCSA": "N", "NECTA": "N", "NMNECTA": "N", "CD": "4835", "SLDL": "48051", "SLDU": "48021", "SCHOOLYEAR": "2018-2019" }, "geometry": { "type": "Point", "coordinates": [ -97.699068612999952, 30.226295209000057 ] } },
{ "type": "Feature", "properties": { "FID": 82355, "NCESSCH": "480021113220", "LEAID": "4800211", "NAME": "IDEA RUNDBERG ACADEMY", "OPSTFIPS": "48", "STREET": "9504 N INTERSTATE 35", "CITY": "AUSTIN", "STATE": "TX", "ZIP": "78753", "STFIP": "48", "CNTY": "48453", "NMCNTY": "Travis County", "LOCALE": "11", "LAT": 30.361042, "LON": -97.687821, "CBSA": "12420", "NMCBSA": "Austin-Round Rock, TX", "CBSATYPE": "1", "CSA": "N", "NMCSA": "N", "NECTA": "N", "NMNECTA": "N", "CD": "4835", "SLDL": "48050", "SLDU": "48014", "SCHOOLYEAR": "2018-2019" }, "geometry": { "type": "Point", "coordinates": [ -97.68782861699998, 30.361047236000047 ] } },
{ "type": "Feature", "properties": { "FID": 82356, "NCESSCH": "480021113223", "LEAID": "4800211", "NAME": "IDEA RUNDBERG COLLEGE PREPARATORY", "OPSTFIPS": "48", "STREET": "9504 N INTERSTATE 35", "CITY": "AUSTIN", "STATE": "TX", "ZIP": "78753", "STFIP": "48", "CNTY": "48453", "NMCNTY": "Travis County", "LOCALE": "11", "LAT": 30.361042, "LON": -97.687821, "CBSA": "12420", "NMCBSA": "Austin-Round Rock, TX", "CBSATYPE": "1", "CSA": "N", "NMCSA": "N", "NECTA": "N", "NMNECTA": "N", "CD": "4835", "SLDL": "48050", "SLDU": "48014", "SCHOOLYEAR": "2018-2019" }, "geometry": { "type": "Point", "coordinates": [ -97.68782861699998, 30.361047236000047 ] } },
{ "type": "Feature", "properties": { "FID": 82365, "NCESSCH": "480021113510", "LEAID": "4800211", "NAME": "IDEA BLUFF SPRINGS ACADEMY", "OPSTFIPS": "48", "STREET": "1700 E SLAUGHTER LN", "CITY": "AUSTIN", "STATE": "TX", "ZIP": "78744", "STFIP": "48", "CNTY": "48453", "NMCNTY": "Travis County", "LOCALE": "41", "LAT": 30.15393, "LON": -97.769126, "CBSA": "12420", "NMCBSA": "Austin-Round Rock, TX", "CBSATYPE": "1", "CSA": "N", "NMCSA": "N", "NECTA": "N", "NMNECTA": "N", "CD": "4821", "SLDL": "48048", "SLDU": "48021", "SCHOOLYEAR": "2018-2019" }, "geometry": { "type": "Point", "coordinates": [ -97.769133626999974, 30.153935192000063 ] } },
{ "type": "Feature", "properties": { "FID": 82369, "NCESSCH": "480021113523", "LEAID": "4800211", "NAME": "IDEA BLUFF SPRINGS COLLEGE PREPARATORY", "OPSTFIPS": "48", "STREET": "1700 E SLAUGHTER LN", "CITY": "AUSTIN", "STATE": "TX", "ZIP": "78744", "STFIP": "48", "CNTY": "48453", "NMCNTY": "Travis County", "LOCALE": "41", "LAT": 30.15393, "LON": -97.769126, "CBSA": "12420", "NMCBSA": "Austin-Round Rock, TX", "CBSATYPE": "1", "CSA": "N", "NMCSA": "N", "NECTA": "N", "NMNECTA": "N", "CD": "4821", "SLDL": "48048", "SLDU": "48021", "SCHOOLYEAR": "2018-2019" }, "geometry": { "type": "Point", "coordinates": [ -97.769133626999974, 30.153935192000063 ] } },
{ "type": "Feature", "properties": { "FID": 82403, "NCESSCH": "480023209075", "LEAID": "4800232", "NAME": "CEDARS INTERNATIONAL ACADEMY", "OPSTFIPS": "48", "STREET": "8416 N IH 35", "CITY": "AUSTIN", "STATE": "TX", "ZIP": "78753", "STFIP": "48", "CNTY": "48453", "NMCNTY": "Travis County", "LOCALE": "11", "LAT": 30.348235, "LON": -97.695308, "CBSA": "12420", "NMCBSA": "Austin-Round Rock, TX", "CBSATYPE": "1", "CSA": "N", "NMCSA": "N", "NECTA": "N", "NMNECTA": "N", "CD": "4835", "SLDL": "48046", "SLDU": "48014", "SCHOOLYEAR": "2018-2019" }, "geometry": { "type": "Point", "coordinates": [ -97.695315617999938, 30.34824023300007 ] } },
{ "type": "Feature", "properties": { "FID": 82404, "NCESSCH": "480023213382", "LEAID": "4800232", "NAME": "CEDARS ACADEMY NEXT GENERATION H S AT HIGHLAND", "OPSTFIPS": "48", "STREET": "6700 MIDDLE FISKVILLE RD", "CITY": "AUSTIN", "STATE": "TX", "ZIP": "78752", "STFIP": "48", "CNTY": "48453", "NMCNTY": "Travis County", "LOCALE": "11", "LAT": 30.327967, "LON": -97.70919, "CBSA": "12420", "NMCBSA": "Austin-Round Rock, TX", "CBSATYPE": "1", "CSA": "N", "NMCSA": "N", "NECTA": "N", "NMNECTA": "N", "CD": "4810", "SLDL": "48046", "SLDU": "48014", "SCHOOLYEAR": "2018-2019" }, "geometry": { "type": "Point", "coordinates": [ -97.709197620999987, 30.327972229000068 ] } },
{ "type": "Feature", "properties": { "FID": 82424, "NCESSCH": "480024109409", "LEAID": "4800241", "NAME": "HARMONY SCIENCE ACADEMY - AUSTIN", "OPSTFIPS": "48", "STREET": "930 E RUNDBERG LN", "CITY": "AUSTIN", "STATE": "TX", "ZIP": "78753", "STFIP": "48", "CNTY": "48453", "NMCNTY": "Travis County", "LOCALE": "11", "LAT": 30.357408, "LON": -97.684729, "CBSA": "12420", "NMCBSA": "Austin-Round Rock, TX", "CBSATYPE": "1", "CSA": "N", "NMCSA": "N", "NECTA": "N", "NMNECTA": "N", "CD": "4810", "SLDL": "48050", "SLDU": "48014", "SCHOOLYEAR": "2018-2019" }, "geometry": { "type": "Point", "coordinates": [ -97.684736615999952, 30.357413235000024 ] } },
{ "type": "Feature", "properties": { "FID": 82426, "NCESSCH": "480024112424", "LEAID": "4800241", "NAME": "HARMONY SCHOOL OF EXCELLENCE - AUSTIN", "OPSTFIPS": "48", "STREET": "2100 E ST ELMO RD", "CITY": "AUSTIN", "STATE": "TX", "ZIP": "78744", "STFIP": "48", "CNTY": "48453", "NMCNTY": "Travis County", "LOCALE": "11", "LAT": 30.210365, "LON": -97.746605, "CBSA": "12420", "NMCBSA": "Austin-Round Rock, TX", "CBSATYPE": "1", "CSA": "N", "NMCSA": "N", "NECTA": "N", "NMNECTA": "N", "CD": "4835", "SLDL": "48051", "SLDU": "48021", "SCHOOLYEAR": "2018-2019" }, "geometry": { "type": "Point", "coordinates": [ -97.746612623999965, 30.210370205000061 ] } },
{ "type": "Feature", "properties": { "FID": 82427, "NCESSCH": "480024112574", "LEAID": "4800241", "NAME": "HARMONY SCHOOL OF SCIENCE - AUSTIN", "OPSTFIPS": "48", "STREET": "11800 STONEHOLLOW DR", "CITY": "AUSTIN", "STATE": "TX", "ZIP": "78758", "STFIP": "48", "CNTY": "48453", "NMCNTY": "Travis County", "LOCALE": "11", "LAT": 30.400787, "LON": -97.708669, "CBSA": "12420", "NMCBSA": "Austin-Round Rock, TX", "CBSATYPE": "1", "CSA": "N", "NMCSA": "N", "NECTA": "N", "NMNECTA": "N", "CD": "4810", "SLDL": "48049", "SLDU": "48014", "SCHOOLYEAR": "2018-2019" }, "geometry": { "type": "Point", "coordinates": [ -97.708676623999963, 30.400792243000069 ] } },
{ "type": "Feature", "properties": { "FID": 82428, "NCESSCH": "480024112787", "LEAID": "4800241", "NAME": "HARMONY SCHOOL OF ENDEAVOR AUSTIN", "OPSTFIPS": "48", "STREET": "13415 FM 620 N", "CITY": "AUSTIN", "STATE": "TX", "ZIP": "78717", "STFIP": "48", "CNTY": "48491", "NMCNTY": "Williamson County", "LOCALE": "11", "LAT": 30.470447, "LON": -97.786734, "CBSA": "12420", "NMCBSA": "Austin-Round Rock, TX", "CBSATYPE": "1", "CSA": "N", "NMCSA": "N", "NECTA": "N", "NMNECTA": "N", "CD": "4831", "SLDL": "48136", "SLDU": "48005", "SCHOOLYEAR": "2018-2019" }, "geometry": { "type": "Point", "coordinates": [ -97.786741646999985, 30.470452254000065 ] } },
{ "type": "Feature", "properties": { "FID": 82429, "NCESSCH": "480024113063", "LEAID": "4800241", "NAME": "HARMONY SCHOOL OF INNOVATION - AUSTIN", "OPSTFIPS": "48", "STREET": "2124 E ST ELMO RD A", "CITY": "AUSTIN", "STATE": "TX", "ZIP": "78744", "STFIP": "48", "CNTY": "48453", "NMCNTY": "Travis County", "LOCALE": "11", "LAT": 30.21007, "LON": -97.745391, "CBSA": "12420", "NMCBSA": "Austin-Round Rock, TX", "CBSATYPE": "1", "CSA": "N", "NMCSA": "N", "NECTA": "N", "NMNECTA": "N", "CD": "4835", "SLDL": "48051", "SLDU": "48021", "SCHOOLYEAR": "2018-2019" }, "geometry": { "type": "Point", "coordinates": [ -97.745398623999961, 30.210075205000066 ] } },
{ "type": "Feature", "properties": { "FID": 82430, "NCESSCH": "480024113430", "LEAID": "4800241", "NAME": "HARMONY SCIENCE ACADEMY - CEDAR PARK", "OPSTFIPS": "48", "STREET": "12200 ANDERSON MILL RD", "CITY": "AUSTIN", "STATE": "TX", "ZIP": "78726", "STFIP": "48", "CNTY": "48453", "NMCNTY": "Travis County", "LOCALE": "21", "LAT": 30.459612, "LON": -97.832247, "CBSA": "12420", "NMCBSA": "Austin-Round Rock, TX", "CBSATYPE": "1", "CSA": "N", "NMCSA": "N", "NECTA": "N", "NMNECTA": "N", "CD": "4810", "SLDL": "48047", "SLDU": "48014", "SCHOOLYEAR": "2018-2019" }, "geometry": { "type": "Point", "coordinates": [ -97.832254657999954, 30.459617250000065 ] } },
{ "type": "Feature", "properties": { "FID": 82435, "NCESSCH": "480025109530", "LEAID": "4800251", "NAME": "UNIVERSITY OF TEXAS EL CHARTER SCHOOL", "OPSTFIPS": "48", "STREET": "2200 E 6TH ST", "CITY": "AUSTIN", "STATE": "TX", "ZIP": "78702", "STFIP": "48", "CNTY": "48453", "NMCNTY": "Travis County", "LOCALE": "11", "LAT": 30.260299, "LON": -97.717419, "CBSA": "12420", "NMCBSA": "Austin-Round Rock, TX", "CBSATYPE": "1", "CSA": "N", "NMCSA": "N", "NECTA": "N", "NMNECTA": "N", "CD": "4835", "SLDL": "48051", "SLDU": "48014", "SCHOOLYEAR": "2018-2019" }, "geometry": { "type": "Point", "coordinates": [ -97.71742661899998, 30.260304215000076 ] } },
{ "type": "Feature", "properties": { "FID": 82436, "NCESSCH": "480025209536", "LEAID": "4800252", "NAME": "TEXAS SCHOOL FOR THE BLIND", "OPSTFIPS": "48", "STREET": "1100 W 45TH ST", "CITY": "AUSTIN", "STATE": "TX", "ZIP": "78756", "STFIP": "48", "CNTY": "48453", "NMCNTY": "Travis County", "LOCALE": "11", "LAT": 30.315075, "LON": -97.739333, "CBSA": "12420", "NMCBSA": "Austin-Round Rock, TX", "CBSATYPE": "1", "CSA": "N", "NMCSA": "N", "NECTA": "N", "NMNECTA": "N", "CD": "4810", "SLDL": "48049", "SLDU": "48014", "SCHOOLYEAR": "2018-2019" }, "geometry": { "type": "Point", "coordinates": [ -97.73934062699999, 30.315080225000031 ] } },
{ "type": "Feature", "properties": { "FID": 82437, "NCESSCH": "480025309537", "LEAID": "4800253", "NAME": "TEXAS SCHOOL FOR THE DEAF", "OPSTFIPS": "48", "STREET": "1102 S CONGRESS AVE", "CITY": "AUSTIN", "STATE": "TX", "ZIP": "78704", "STFIP": "48", "CNTY": "48453", "NMCNTY": "Travis County", "LOCALE": "11", "LAT": 30.254616, "LON": -97.749017, "CBSA": "12420", "NMCBSA": "Austin-Round Rock, TX", "CBSATYPE": "1", "CSA": "N", "NMCSA": "N", "NECTA": "N", "NMNECTA": "N", "CD": "4821", "SLDL": "48051", "SLDU": "48014", "SCHOOLYEAR": "2018-2019" }, "geometry": { "type": "Point", "coordinates": [ -97.749024626999983, 30.254621212000075 ] } },
{ "type": "Feature", "properties": { "FID": 82468, "NCESSCH": "480026411055", "LEAID": "4800264", "NAME": "KIPP AUSTIN COLLEGE PREP", "OPSTFIPS": "48", "STREET": "8004 CAMERON RD", "CITY": "AUSTIN", "STATE": "TX", "ZIP": "78754", "STFIP": "48", "CNTY": "48453", "NMCNTY": "Travis County", "LOCALE": "11", "LAT": 30.33561, "LON": -97.686071, "CBSA": "12420", "NMCBSA": "Austin-Round Rock, TX", "CBSATYPE": "1", "CSA": "N", "NMCSA": "N", "NECTA": "N", "NMNECTA": "N", "CD": "4835", "SLDL": "48046", "SLDU": "48014", "SCHOOLYEAR": "2018-2019" }, "geometry": { "type": "Point", "coordinates": [ -97.686078614999985, 30.335615231000077 ] } },
{ "type": "Feature", "properties": { "FID": 82477, "NCESSCH": "480026411782", "LEAID": "4800264", "NAME": "KIPP AUSTIN COLLEGIATE", "OPSTFIPS": "48", "STREET": "8004 CAMERON RD", "CITY": "AUSTIN", "STATE": "TX", "ZIP": "78754", "STFIP": "48", "CNTY": "48453", "NMCNTY": "Travis County", "LOCALE": "11", "LAT": 30.33561, "LON": -97.686071, "CBSA": "12420", "NMCBSA": "Austin-Round Rock, TX", "CBSATYPE": "1", "CSA": "N", "NMCSA": "N", "NECTA": "N", "NMNECTA": "N", "CD": "4835", "SLDL": "48046", "SLDU": "48014", "SCHOOLYEAR": "2018-2019" }, "geometry": { "type": "Point", "coordinates": [ -97.686078614999985, 30.335615231000077 ] } },
{ "type": "Feature", "properties": { "FID": 82482, "NCESSCH": "480026412305", "LEAID": "4800264", "NAME": "KIPP AUSTIN ACADEMY OF ARTS & LETTERS", "OPSTFIPS": "48", "STREET": "8509 FM 969 BLDG A", "CITY": "AUSTIN", "STATE": "TX", "ZIP": "78724", "STFIP": "48", "CNTY": "48453", "NMCNTY": "Travis County", "LOCALE": "11", "LAT": 30.272952, "LON": -97.636143, "CBSA": "12420", "NMCBSA": "Austin-Round Rock, TX", "CBSATYPE": "1", "CSA": "N", "NMCSA": "N", "NECTA": "N", "NMNECTA": "N", "CD": "4825", "SLDL": "48046", "SLDU": "48014", "SCHOOLYEAR": "2018-2019" }, "geometry": { "type": "Point", "coordinates": [ -97.636150599999951, 30.272957220000023 ] } },
{ "type": "Feature", "properties": { "FID": 82488, "NCESSCH": "480026412553", "LEAID": "4800264", "NAME": "KIPP AUSTIN COMUNIDAD", "OPSTFIPS": "48", "STREET": "8004 CAMERON RD", "CITY": "AUSTIN", "STATE": "TX", "ZIP": "78754", "STFIP": "48", "CNTY": "48453", "NMCNTY": "Travis County", "LOCALE": "11", "LAT": 30.33561, "LON": -97.686071, "CBSA": "12420", "NMCBSA": "Austin-Round Rock, TX", "CBSATYPE": "1", "CSA": "N", "NMCSA": "N", "NECTA": "N", "NMNECTA": "N", "CD": "4835", "SLDL": "48046", "SLDU": "48014", "SCHOOLYEAR": "2018-2019" }, "geometry": { "type": "Point", "coordinates": [ -97.686078614999985, 30.335615231000077 ] } },
{ "type": "Feature", "properties": { "FID": 82489, "NCESSCH": "480026412559", "LEAID": "4800264", "NAME": "KIPP AUSTIN CONNECTIONS EL", "OPSTFIPS": "48", "STREET": "8509 FM 969 BLDG 629", "CITY": "AUSTIN", "STATE": "TX", "ZIP": "78724", "STFIP": "48", "CNTY": "48453", "NMCNTY": "Travis County", "LOCALE": "11", "LAT": 30.272952, "LON": -97.636143, "CBSA": "12420", "NMCBSA": "Austin-Round Rock, TX", "CBSATYPE": "1", "CSA": "N", "NMCSA": "N", "NECTA": "N", "NMNECTA": "N", "CD": "4825", "SLDL": "48046", "SLDU": "48014", "SCHOOLYEAR": "2018-2019" }, "geometry": { "type": "Point", "coordinates": [ -97.636150599999951, 30.272957220000023 ] } },
{ "type": "Feature", "properties": { "FID": 82495, "NCESSCH": "480026412837", "LEAID": "4800264", "NAME": "KIPP AUSTIN BEACON PREP", "OPSTFIPS": "48", "STREET": "5107 I 35 S", "CITY": "AUSTIN", "STATE": "TX", "ZIP": "78744", "STFIP": "48", "CNTY": "48453", "NMCNTY": "Travis County", "LOCALE": "11", "LAT": 30.202689, "LON": -97.75703, "CBSA": "12420", "NMCBSA": "Austin-Round Rock, TX", "CBSATYPE": "1", "CSA": "N", "NMCSA": "N", "NECTA": "N", "NMNECTA": "N", "CD": "4835", "SLDL": "48051", "SLDU": "48021", "SCHOOLYEAR": "2018-2019" }, "geometry": { "type": "Point", "coordinates": [ -97.757037626999988, 30.202694202000032 ] } },
{ "type": "Feature", "properties": { "FID": 82496, "NCESSCH": "480026412849", "LEAID": "4800264", "NAME": "KIPP AUSTIN VISTA MIDDLE SCHOOLS", "OPSTFIPS": "48", "STREET": "8509 FM 969 BLDG 676", "CITY": "AUSTIN", "STATE": "TX", "ZIP": "78724", "STFIP": "48", "CNTY": "48453", "NMCNTY": "Travis County", "LOCALE": "11", "LAT": 30.272952, "LON": -97.636143, "CBSA": "12420", "NMCBSA": "Austin-Round Rock, TX", "CBSATYPE": "1", "CSA": "N", "NMCSA": "N", "NECTA": "N", "NMNECTA": "N", "CD": "4825", "SLDL": "48046", "SLDU": "48014", "SCHOOLYEAR": "2018-2019" }, "geometry": { "type": "Point", "coordinates": [ -97.636150599999951, 30.272957220000023 ] } },
{ "type": "Feature", "properties": { "FID": 82497, "NCESSCH": "480026412954", "LEAID": "4800264", "NAME": "KIPP AUSTIN OBRAS", "OPSTFIPS": "48", "STREET": "5107 IH 35 S STE A", "CITY": "AUSTIN", "STATE": "TX", "ZIP": "78744", "STFIP": "48", "CNTY": "48453", "NMCNTY": "Travis County", "LOCALE": "11", "LAT": 30.202689, "LON": -97.75703, "CBSA": "12420", "NMCBSA": "Austin-Round Rock, TX", "CBSATYPE": "1", "CSA": "N", "NMCSA": "N", "NECTA": "N", "NMNECTA": "N", "CD": "4835", "SLDL": "48051", "SLDU": "48021", "SCHOOLYEAR": "2018-2019" }, "geometry": { "type": "Point", "coordinates": [ -97.757037626999988, 30.202694202000032 ] } },
{ "type": "Feature", "properties": { "FID": 82500, "NCESSCH": "480026413044", "LEAID": "4800264", "NAME": "KIPP AUSTIN LEADERSHIP EL", "OPSTFIPS": "48", "STREET": "5107 IH 35 S STE A", "CITY": "AUSTIN", "STATE": "TX", "ZIP": "78744", "STFIP": "48", "CNTY": "48453", "NMCNTY": "Travis County", "LOCALE": "11", "LAT": 30.272952, "LON": -97.636143, "CBSA": "12420", "NMCBSA": "Austin-Round Rock, TX", "CBSATYPE": "1", "CSA": "N", "NMCSA": "N", "NECTA": "N", "NMNECTA": "N", "CD": "4825", "SLDL": "48046", "SLDU": "48014", "SCHOOLYEAR": "2018-2019" }, "geometry": { "type": "Point", "coordinates": [ -97.636150599999951, 30.272957220000023 ] } },
{ "type": "Feature", "properties": { "FID": 82508, "NCESSCH": "480026413461", "LEAID": "4800264", "NAME": "KIPP AUSTIN BRAVE", "OPSTFIPS": "48", "STREET": "8509 FM 969 BUILDING 676", "CITY": "AUSTIN", "STATE": "TX", "ZIP": "78724", "STFIP": "48", "CNTY": "48453", "NMCNTY": "Travis County", "LOCALE": "11", "LAT": 30.202689, "LON": -97.75703, "CBSA": "12420", "NMCBSA": "Austin-Round Rock, TX", "CBSATYPE": "1", "CSA": "N", "NMCSA": "N", "NECTA": "N", "NMNECTA": "N", "CD": "4835", "SLDL": "48051", "SLDU": "48021", "SCHOOLYEAR": "2018-2019" }, "geometry": { "type": "Point", "coordinates": [ -97.757037626999988, 30.202694202000032 ] } },
{ "type": "Feature", "properties": { "FID": 82516, "NCESSCH": "480026511056", "LEAID": "4800265", "NAME": "AUSTIN DISCOVERY SCH", "OPSTFIPS": "48", "STREET": "9303 FM 969", "CITY": "AUSTIN", "STATE": "TX", "ZIP": "78724", "STFIP": "48", "CNTY": "48453", "NMCNTY": "Travis County", "LOCALE": "11", "LAT": 30.267791, "LON": -97.635006, "CBSA": "12420", "NMCBSA": "Austin-Round Rock, TX", "CBSATYPE": "1", "CSA": "N", "NMCSA": "N", "NECTA": "N", "NMNECTA": "N", "CD": "4825", "SLDL": "48046", "SLDU": "48014", "SCHOOLYEAR": "2018-2019" }, "geometry": { "type": "Point", "coordinates": [ -97.63501359899999, 30.267796220000037 ] } },
{ "type": "Feature", "properties": { "FID": 82600, "NCESSCH": "480141412335", "LEAID": "4801414", "NAME": "THE EAST AUSTIN COLLEGE PREP AT SOUTHWEST KEY", "OPSTFIPS": "48", "STREET": "6002 JAIN LN", "CITY": "AUSTIN", "STATE": "TX", "ZIP": "78721", "STFIP": "48", "CNTY": "48453", "NMCNTY": "Travis County", "LOCALE": "11", "LAT": 30.261069, "LON": -97.68248, "CBSA": "12420", "NMCBSA": "Austin-Round Rock, TX", "CBSATYPE": "1", "CSA": "N", "NMCSA": "N", "NECTA": "N", "NMNECTA": "N", "CD": "4835", "SLDL": "48051", "SLDU": "48014", "SCHOOLYEAR": "2018-2019" }, "geometry": { "type": "Point", "coordinates": [ -97.682487610999942, 30.261074217000044 ] } },
{ "type": "Feature", "properties": { "FID": 82601, "NCESSCH": "480141412881", "LEAID": "4801414", "NAME": "THE EAST AUSTIN COLLEGE PREP AT MLK", "OPSTFIPS": "48", "STREET": "5800 E MARTIN LUTHER KING JR BLVD", "CITY": "AUSTIN", "STATE": "TX", "ZIP": "78721", "STFIP": "48", "CNTY": "48453", "NMCNTY": "Travis County", "LOCALE": "11", "LAT": 30.28771, "LON": -97.666701, "CBSA": "12420", "NMCBSA": "Austin-Round Rock, TX", "CBSATYPE": "1", "CSA": "N", "NMCSA": "N", "NECTA": "N", "NMNECTA": "N", "CD": "4825", "SLDL": "48046", "SLDU": "48014", "SCHOOLYEAR": "2018-2019" }, "geometry": { "type": "Point", "coordinates": [ -97.666708607999965, 30.287715222000031 ] } },
{ "type": "Feature", "properties": { "FID": 82630, "NCESSCH": "480143112775", "LEAID": "4801431", "NAME": "AUSTIN ACHIEVE", "OPSTFIPS": "48", "STREET": "5908 MANOR RD", "CITY": "AUSTIN", "STATE": "TX", "ZIP": "78723", "STFIP": "48", "CNTY": "48453", "NMCNTY": "Travis County", "LOCALE": "11", "LAT": 30.307615, "LON": -97.67991, "CBSA": "12420", "NMCBSA": "Austin-Round Rock, TX", "CBSATYPE": "1", "CSA": "N", "NMCSA": "N", "NECTA": "N", "NMNECTA": "N", "CD": "4825", "SLDL": "48046", "SLDU": "48014", "SCHOOLYEAR": "2018-2019" }, "geometry": { "type": "Point", "coordinates": [ -97.67991761199994, 30.30762022600004 ] } },
{ "type": "Feature", "properties": { "FID": 82631, "NCESSCH": "480143113800", "LEAID": "4801431", "NAME": "AUSTIN ACHIEVE NORTHEAST CAMPUS", "OPSTFIPS": "48", "STREET": "7424 E HWY 290", "CITY": "AUSTIN", "STATE": "TX", "ZIP": "78723", "STFIP": "48", "CNTY": "48453", "NMCNTY": "Travis County", "LOCALE": "11", "LAT": 30.32543, "LON": -97.678369, "CBSA": "12420", "NMCBSA": "Austin-Round Rock, TX", "CBSATYPE": "1", "CSA": "N", "NMCSA": "N", "NECTA": "N", "NMNECTA": "N", "CD": "4810", "SLDL": "48046", "SLDU": "48014", "SCHOOLYEAR": "2018-2019" }, "geometry": { "type": "Point", "coordinates": [ -97.678376611999965, 30.32543522900005 ] } },
{ "type": "Feature", "properties": { "FID": 82685, "NCESSCH": "480144212915", "LEAID": "4801442", "NAME": "MAGNOLIA MONTESSORI FOR ALL", "OPSTFIPS": "48", "STREET": "5100 PECAN BROOK DR", "CITY": "AUSTIN", "STATE": "TX", "ZIP": "78724", "STFIP": "48", "CNTY": "48453", "NMCNTY": "Travis County", "LOCALE": "11", "LAT": 30.316754, "LON": -97.657491, "CBSA": "12420", "NMCBSA": "Austin-Round Rock, TX", "CBSATYPE": "1", "CSA": "N", "NMCSA": "N", "NECTA": "N", "NMNECTA": "N", "CD": "4835", "SLDL": "48046", "SLDU": "48014", "SCHOOLYEAR": "2018-2019" }, "geometry": { "type": "Point", "coordinates": [ -97.65749860699998, 30.316759228000024 ] } },
{ "type": "Feature", "properties": { "FID": 82692, "NCESSCH": "480144813141", "LEAID": "4801448", "NAME": "THE EXCEL CENTER (FOR ADULTS)", "OPSTFIPS": "48", "STREET": "1015 NORWOOD PARK BLVD", "CITY": "AUSTIN", "STATE": "TX", "ZIP": "78753", "STFIP": "48", "CNTY": "48453", "NMCNTY": "Travis County", "LOCALE": "11", "LAT": 30.33907, "LON": -97.694453, "CBSA": "12420", "NMCBSA": "Austin-Round Rock, TX", "CBSATYPE": "1", "CSA": "N", "NMCSA": "N", "NECTA": "N", "NMNECTA": "N", "CD": "4835", "SLDL": "48046", "SLDU": "48014", "SCHOOLYEAR": "2018-2019" }, "geometry": { "type": "Point", "coordinates": [ -97.694460617999937, 30.339075232000027 ] } },
{ "type": "Feature", "properties": { "FID": 82694, "NCESSCH": "480144813834", "LEAID": "4801448", "NAME": "THE EXCEL CENTER FOR ADULTS - SOUTH AUSTIN", "OPSTFIPS": "48", "STREET": "6505 BURLESON RD", "CITY": "AUSTIN", "STATE": "TX", "ZIP": "78744", "STFIP": "48", "CNTY": "48453", "NMCNTY": "Travis County", "LOCALE": "41", "LAT": 30.203366, "LON": -97.714497, "CBSA": "12420", "NMCBSA": "Austin-Round Rock, TX", "CBSATYPE": "1", "CSA": "N", "NMCSA": "N", "NECTA": "N", "NMNECTA": "N", "CD": "4835", "SLDL": "48051", "SLDU": "48021", "SCHOOLYEAR": "2018-2019" }, "geometry": { "type": "Point", "coordinates": [ -97.714504615999942, 30.203371204000064 ] } },
{ "type": "Feature", "properties": { "FID": 82695, "NCESSCH": "480144913160", "LEAID": "4801449", "NAME": "THE EXCEL CENTER", "OPSTFIPS": "48", "STREET": "1015 NORWOOD PARK BLVD", "CITY": "AUSTIN", "STATE": "TX", "ZIP": "78753", "STFIP": "48", "CNTY": "48453", "NMCNTY": "Travis County", "LOCALE": "11", "LAT": 30.338968, "LON": -97.694507, "CBSA": "12420", "NMCBSA": "Austin-Round Rock, TX", "CBSATYPE": "1", "CSA": "N", "NMCSA": "N", "NECTA": "N", "NMNECTA": "N", "CD": "4835", "SLDL": "48046", "SLDU": "48014", "SCHOOLYEAR": "2018-2019" }, "geometry": { "type": "Point", "coordinates": [ -97.694514617999971, 30.338973231000068 ] } },
{ "type": "Feature", "properties": { "FID": 82713, "NCESSCH": "480146113593", "LEAID": "4801461", "NAME": "VALOR SOUTH AUSTIN", "OPSTFIPS": "48", "STREET": "220 FOREMOST DR", "CITY": "AUSTIN", "STATE": "TX", "ZIP": "78745", "STFIP": "48", "CNTY": "48453", "NMCNTY": "Travis County", "LOCALE": "11", "LAT": 30.179326, "LON": -97.779824, "CBSA": "12420", "NMCBSA": "Austin-Round Rock, TX", "CBSATYPE": "1", "CSA": "N", "NMCSA": "N", "NECTA": "N", "NMNECTA": "N", "CD": "4835", "SLDL": "48048", "SLDU": "48021", "SCHOOLYEAR": "2018-2019" }, "geometry": { "type": "Point", "coordinates": [ -97.779831630999979, 30.179331197000067 ] } },
{ "type": "Feature", "properties": { "FID": 83250, "NCESSCH": "480894000291", "LEAID": "4808940", "NAME": "ALLISON EL", "OPSTFIPS": "48", "STREET": "515 VARGAS RD", "CITY": "AUSTIN", "STATE": "TX", "ZIP": "78741", "STFIP": "48", "CNTY": "48453", "NMCNTY": "Travis County", "LOCALE": "11", "LAT": 30.236175, "LON": -97.691591, "CBSA": "12420", "NMCBSA": "Austin-Round Rock, TX", "CBSATYPE": "1", "CSA": "N", "NMCSA": "N", "NECTA": "N", "NMNECTA": "N", "CD": "4835", "SLDL": "48051", "SLDU": "48021", "SCHOOLYEAR": "2018-2019" }, "geometry": { "type": "Point", "coordinates": [ -97.691598610999961, 30.236180211000033 ] } },
{ "type": "Feature", "properties": { "FID": 83251, "NCESSCH": "480894000292", "LEAID": "4808940", "NAME": "ANDERSON H S", "OPSTFIPS": "48", "STREET": "8403 MESA DR", "CITY": "AUSTIN", "STATE": "TX", "ZIP": "78759", "STFIP": "48", "CNTY": "48453", "NMCNTY": "Travis County", "LOCALE": "11", "LAT": 30.375754, "LON": -97.753617, "CBSA": "12420", "NMCBSA": "Austin-Round Rock, TX", "CBSATYPE": "1", "CSA": "N", "NMCSA": "N", "NECTA": "N", "NMNECTA": "N", "CD": "4810", "SLDL": "48048", "SLDU": "48014", "SCHOOLYEAR": "2018-2019" }, "geometry": { "type": "Point", "coordinates": [ -97.753624633999948, 30.375759237000068 ] } },
{ "type": "Feature", "properties": { "FID": 83252, "NCESSCH": "480894000293", "LEAID": "4808940", "NAME": "ANDREWS EL", "OPSTFIPS": "48", "STREET": "6801 NORTHEAST DR", "CITY": "AUSTIN", "STATE": "TX", "ZIP": "78723", "STFIP": "48", "CNTY": "48453", "NMCNTY": "Travis County", "LOCALE": "11", "LAT": 30.317783, "LON": -97.680186, "CBSA": "12420", "NMCBSA": "Austin-Round Rock, TX", "CBSATYPE": "1", "CSA": "N", "NMCSA": "N", "NECTA": "N", "NMNECTA": "N", "CD": "4825", "SLDL": "48046", "SLDU": "48014", "SCHOOLYEAR": "2018-2019" }, "geometry": { "type": "Point", "coordinates": [ -97.680193612999972, 30.317788227000051 ] } },
{ "type": "Feature", "properties": { "FID": 83253, "NCESSCH": "480894000294", "LEAID": "4808940", "NAME": "AUSTIN H S", "OPSTFIPS": "48", "STREET": "1715 W CESAR CHAVEZ", "CITY": "AUSTIN", "STATE": "TX", "ZIP": "78703", "STFIP": "48", "CNTY": "48453", "NMCNTY": "Travis County", "LOCALE": "11", "LAT": 30.274013, "LON": -97.767439, "CBSA": "12420", "NMCBSA": "Austin-Round Rock, TX", "CBSATYPE": "1", "CSA": "N", "NMCSA": "N", "NECTA": "N", "NMNECTA": "N", "CD": "4821", "SLDL": "48049", "SLDU": "48014", "SCHOOLYEAR": "2018-2019" }, "geometry": { "type": "Point", "coordinates": [ -97.767446631999974, 30.274018216000059 ] } },
{ "type": "Feature", "properties": { "FID": 83254, "NCESSCH": "480894000296", "LEAID": "4808940", "NAME": "BARRINGTON EL", "OPSTFIPS": "48", "STREET": "400 COOPER DR", "CITY": "AUSTIN", "STATE": "TX", "ZIP": "78753", "STFIP": "48", "CNTY": "48453", "NMCNTY": "Travis County", "LOCALE": "11", "LAT": 30.361193, "LON": -97.695633, "CBSA": "12420", "NMCBSA": "Austin-Round Rock, TX", "CBSATYPE": "1", "CSA": "N", "NMCSA": "N", "NECTA": "N", "NMNECTA": "N", "CD": "4835", "SLDL": "48050", "SLDU": "48014", "SCHOOLYEAR": "2018-2019" }, "geometry": { "type": "Point", "coordinates": [ -97.69564061899996, 30.361198235000074 ] } },
{ "type": "Feature", "properties": { "FID": 83255, "NCESSCH": "480894000297", "LEAID": "4808940", "NAME": "BARTON HILLS EL", "OPSTFIPS": "48", "STREET": "2108 BARTON HILLS DR", "CITY": "AUSTIN", "STATE": "TX", "ZIP": "78704", "STFIP": "48", "CNTY": "48453", "NMCNTY": "Travis County", "LOCALE": "11", "LAT": 30.254391, "LON": -97.783394, "CBSA": "12420", "NMCBSA": "Austin-Round Rock, TX", "CBSATYPE": "1", "CSA": "N", "NMCSA": "N", "NECTA": "N", "NMNECTA": "N", "CD": "4821", "SLDL": "48049", "SLDU": "48014", "SCHOOLYEAR": "2018-2019" }, "geometry": { "type": "Point", "coordinates": [ -97.783401634999962, 30.254396212000074 ] } },
{ "type": "Feature", "properties": { "FID": 83256, "NCESSCH": "480894000298", "LEAID": "4808940", "NAME": "BECKER EL", "OPSTFIPS": "48", "STREET": "906  W MILTON", "CITY": "AUSTIN", "STATE": "TX", "ZIP": "78704", "STFIP": "48", "CNTY": "48453", "NMCNTY": "Travis County", "LOCALE": "11", "LAT": 30.250532, "LON": -97.759832, "CBSA": "12420", "NMCBSA": "Austin-Round Rock, TX", "CBSATYPE": "1", "CSA": "N", "NMCSA": "N", "NECTA": "N", "NMNECTA": "N", "CD": "4821", "SLDL": "48051", "SLDU": "48014", "SCHOOLYEAR": "2018-2019" }, "geometry": { "type": "Point", "coordinates": [ -97.759839628999941, 30.25053721200004 ] } },
{ "type": "Feature", "properties": { "FID": 83257, "NCESSCH": "480894000299", "LEAID": "4808940", "NAME": "BEDICHEK MIDDLE", "OPSTFIPS": "48", "STREET": "6800 BILL HUGHES RD", "CITY": "AUSTIN", "STATE": "TX", "ZIP": "78745", "STFIP": "48", "CNTY": "48453", "NMCNTY": "Travis County", "LOCALE": "11", "LAT": 30.194664, "LON": -97.786616, "CBSA": "12420", "NMCBSA": "Austin-Round Rock, TX", "CBSATYPE": "1", "CSA": "N", "NMCSA": "N", "NECTA": "N", "NMNECTA": "N", "CD": "4835", "SLDL": "48048", "SLDU": "48021", "SCHOOLYEAR": "2018-2019" }, "geometry": { "type": "Point", "coordinates": [ -97.786623633999966, 30.194669200000078 ] } },
{ "type": "Feature", "properties": { "FID": 83258, "NCESSCH": "480894000300", "LEAID": "4808940", "NAME": "BLACKSHEAR EL", "OPSTFIPS": "48", "STREET": "1712 E 11TH ST", "CITY": "AUSTIN", "STATE": "TX", "ZIP": "78702", "STFIP": "48", "CNTY": "48453", "NMCNTY": "Travis County", "LOCALE": "11", "LAT": 30.267237, "LON": -97.722184, "CBSA": "12420", "NMCBSA": "Austin-Round Rock, TX", "CBSATYPE": "1", "CSA": "N", "NMCSA": "N", "NECTA": "N", "NMNECTA": "N", "CD": "4825", "SLDL": "48046", "SLDU": "48014", "SCHOOLYEAR": "2018-2019" }, "geometry": { "type": "Point", "coordinates": [ -97.722191620999979, 30.267242216000056 ] } },
{ "type": "Feature", "properties": { "FID": 83259, "NCESSCH": "480894000301", "LEAID": "4808940", "NAME": "BLANTON EL", "OPSTFIPS": "48", "STREET": "5408 WESTMINSTER DR", "CITY": "AUSTIN", "STATE": "TX", "ZIP": "78723", "STFIP": "48", "CNTY": "48453", "NMCNTY": "Travis County", "LOCALE": "11", "LAT": 30.307377, "LON": -97.690348, "CBSA": "12420", "NMCBSA": "Austin-Round Rock, TX", "CBSATYPE": "1", "CSA": "N", "NMCSA": "N", "NECTA": "N", "NMNECTA": "N", "CD": "4825", "SLDL": "48046", "SLDU": "48014", "SCHOOLYEAR": "2018-2019" }, "geometry": { "type": "Point", "coordinates": [ -97.690355614999987, 30.307382225000026 ] } },
{ "type": "Feature", "properties": { "FID": 83260, "NCESSCH": "480894000302", "LEAID": "4808940", "NAME": "BRENTWOOD EL", "OPSTFIPS": "48", "STREET": "6700 ARROYO SECO ST", "CITY": "AUSTIN", "STATE": "TX", "ZIP": "78757", "STFIP": "48", "CNTY": "48453", "NMCNTY": "Travis County", "LOCALE": "11", "LAT": 30.339895, "LON": -97.731322, "CBSA": "12420", "NMCBSA": "Austin-Round Rock, TX", "CBSATYPE": "1", "CSA": "N", "NMCSA": "N", "NECTA": "N", "NMNECTA": "N", "CD": "4810", "SLDL": "48049", "SLDU": "48014", "SCHOOLYEAR": "2018-2019" }, "geometry": { "type": "Point", "coordinates": [ -97.73132962699998, 30.339900230000069 ] } },
{ "type": "Feature", "properties": { "FID": 83261, "NCESSCH": "480894000303", "LEAID": "4808940", "NAME": "BROOKE EL", "OPSTFIPS": "48", "STREET": "3100 E 4TH ST", "CITY": "AUSTIN", "STATE": "TX", "ZIP": "78702", "STFIP": "48", "CNTY": "48453", "NMCNTY": "Travis County", "LOCALE": "11", "LAT": 30.254811, "LON": -97.708308, "CBSA": "12420", "NMCBSA": "Austin-Round Rock, TX", "CBSATYPE": "1", "CSA": "N", "NMCSA": "N", "NECTA": "N", "NMNECTA": "N", "CD": "4835", "SLDL": "48051", "SLDU": "48014", "SCHOOLYEAR": "2018-2019" }, "geometry": { "type": "Point", "coordinates": [ -97.708315616999982, 30.254816214000073 ] } },
{ "type": "Feature", "properties": { "FID": 83262, "NCESSCH": "480894000304", "LEAID": "4808940", "NAME": "BROWN EL", "OPSTFIPS": "48", "STREET": "505 W ANDERSON LN", "CITY": "AUSTIN", "STATE": "TX", "ZIP": "78752", "STFIP": "48", "CNTY": "48453", "NMCNTY": "Travis County", "LOCALE": "11", "LAT": 30.361193, "LON": -97.695633, "CBSA": "12420", "NMCBSA": "Austin-Round Rock, TX", "CBSATYPE": "1", "CSA": "N", "NMCSA": "N", "NECTA": "N", "NMNECTA": "N", "CD": "4835", "SLDL": "48050", "SLDU": "48014", "SCHOOLYEAR": "2018-2019" }, "geometry": { "type": "Point", "coordinates": [ -97.69564061899996, 30.361198235000074 ] } },
{ "type": "Feature", "properties": { "FID": 83263, "NCESSCH": "480894000305", "LEAID": "4808940", "NAME": "BRYKER WOODS EL", "OPSTFIPS": "48", "STREET": "3309 KERBEY LN", "CITY": "AUSTIN", "STATE": "TX", "ZIP": "78703", "STFIP": "48", "CNTY": "48453", "NMCNTY": "Travis County", "LOCALE": "11", "LAT": 30.305478, "LON": -97.750966, "CBSA": "12420", "NMCBSA": "Austin-Round Rock, TX", "CBSATYPE": "1", "CSA": "N", "NMCSA": "N", "NECTA": "N", "NMNECTA": "N", "CD": "4825", "SLDL": "48049", "SLDU": "48014", "SCHOOLYEAR": "2018-2019" }, "geometry": { "type": "Point", "coordinates": [ -97.750973629999976, 30.305483222000078 ] } },
{ "type": "Feature", "properties": { "FID": 83264, "NCESSCH": "480894000306", "LEAID": "4808940", "NAME": "BURNET M S", "OPSTFIPS": "48", "STREET": "8401 HATHAWAY DR", "CITY": "AUSTIN", "STATE": "TX", "ZIP": "78757", "STFIP": "48", "CNTY": "48453", "NMCNTY": "Travis County", "LOCALE": "11", "LAT": 30.364556, "LON": -97.725828, "CBSA": "12420", "NMCBSA": "Austin-Round Rock, TX", "CBSATYPE": "1", "CSA": "N", "NMCSA": "N", "NECTA": "N", "NMNECTA": "N", "CD": "4810", "SLDL": "48049", "SLDU": "48014", "SCHOOLYEAR": "2018-2019" }, "geometry": { "type": "Point", "coordinates": [ -97.725835626999981, 30.364561235000053 ] } },
{ "type": "Feature", "properties": { "FID": 83265, "NCESSCH": "480894000307", "LEAID": "4808940", "NAME": "CAMPBELL EL", "OPSTFIPS": "48", "STREET": "2613 ROGERS AVE", "CITY": "AUSTIN", "STATE": "TX", "ZIP": "78722", "STFIP": "48", "CNTY": "48453", "NMCNTY": "Travis County", "LOCALE": "11", "LAT": 30.282561, "LON": -97.713839, "CBSA": "12420", "NMCBSA": "Austin-Round Rock, TX", "CBSATYPE": "1", "CSA": "N", "NMCSA": "N", "NECTA": "N", "NMNECTA": "N", "CD": "4825", "SLDL": "48046", "SLDU": "48014", "SCHOOLYEAR": "2018-2019" }, "geometry": { "type": "Point", "coordinates": [ -97.71384662, 30.282566219000046 ] } },
{ "type": "Feature", "properties": { "FID": 83266, "NCESSCH": "480894000308", "LEAID": "4808940", "NAME": "CASIS EL", "OPSTFIPS": "48", "STREET": "2710 EXPOSITION BLVD", "CITY": "AUSTIN", "STATE": "TX", "ZIP": "78703", "STFIP": "48", "CNTY": "48453", "NMCNTY": "Travis County", "LOCALE": "11", "LAT": 30.304325, "LON": -97.765594, "CBSA": "12420", "NMCBSA": "Austin-Round Rock, TX", "CBSATYPE": "1", "CSA": "N", "NMCSA": "N", "NECTA": "N", "NMNECTA": "N", "CD": "4825", "SLDL": "48048", "SLDU": "48014", "SCHOOLYEAR": "2018-2019" }, "geometry": { "type": "Point", "coordinates": [ -97.76560163399995, 30.304330222000033 ] } },
{ "type": "Feature", "properties": { "FID": 83267, "NCESSCH": "480894000309", "LEAID": "4808940", "NAME": "COOK EL", "OPSTFIPS": "48", "STREET": "1511 CRIPPLE CREEK DR", "CITY": "AUSTIN", "STATE": "TX", "ZIP": "78758", "STFIP": "48", "CNTY": "48453", "NMCNTY": "Travis County", "LOCALE": "11", "LAT": 30.377944, "LON": -97.704836, "CBSA": "12420", "NMCBSA": "Austin-Round Rock, TX", "CBSATYPE": "1", "CSA": "N", "NMCSA": "N", "NECTA": "N", "NMNECTA": "N", "CD": "4810", "SLDL": "48049", "SLDU": "48014", "SCHOOLYEAR": "2018-2019" }, "geometry": { "type": "Point", "coordinates": [ -97.704843621999942, 30.377949238000042 ] } },
{ "type": "Feature", "properties": { "FID": 83268, "NCESSCH": "480894000310", "LEAID": "4808940", "NAME": "CROCKETT H S", "OPSTFIPS": "48", "STREET": "5601 MANCHACA RD", "CITY": "AUSTIN", "STATE": "TX", "ZIP": "78745", "STFIP": "48", "CNTY": "48453", "NMCNTY": "Travis County", "LOCALE": "11", "LAT": 30.213911, "LON": -97.796551, "CBSA": "12420", "NMCBSA": "Austin-Round Rock, TX", "CBSATYPE": "1", "CSA": "N", "NMCSA": "N", "NECTA": "N", "NMNECTA": "N", "CD": "4821", "SLDL": "48049", "SLDU": "48014", "SCHOOLYEAR": "2018-2019" }, "geometry": { "type": "Point", "coordinates": [ -97.796558636999976, 30.213916203000053 ] } },
{ "type": "Feature", "properties": { "FID": 83269, "NCESSCH": "480894000311", "LEAID": "4808940", "NAME": "CUNNINGHAM EL", "OPSTFIPS": "48", "STREET": "2200 BERKELEY AVE", "CITY": "AUSTIN", "STATE": "TX", "ZIP": "78745", "STFIP": "48", "CNTY": "48453", "NMCNTY": "Travis County", "LOCALE": "11", "LAT": 30.209982, "LON": -97.806022, "CBSA": "12420", "NMCBSA": "Austin-Round Rock, TX", "CBSATYPE": "1", "CSA": "N", "NMCSA": "N", "NECTA": "N", "NMNECTA": "N", "CD": "4821", "SLDL": "48048", "SLDU": "48014", "SCHOOLYEAR": "2018-2019" }, "geometry": { "type": "Point", "coordinates": [ -97.806029638999973, 30.209987202000036 ] } },
{ "type": "Feature", "properties": { "FID": 83270, "NCESSCH": "480894000312", "LEAID": "4808940", "NAME": "DAWSON EL", "OPSTFIPS": "48", "STREET": "3001 S 1ST ST", "CITY": "AUSTIN", "STATE": "TX", "ZIP": "78704", "STFIP": "48", "CNTY": "48453", "NMCNTY": "Travis County", "LOCALE": "11", "LAT": 30.234204, "LON": -97.763601, "CBSA": "12420", "NMCBSA": "Austin-Round Rock, TX", "CBSATYPE": "1", "CSA": "N", "NMCSA": "N", "NECTA": "N", "NMNECTA": "N", "CD": "4821", "SLDL": "48051", "SLDU": "48014", "SCHOOLYEAR": "2018-2019" }, "geometry": { "type": "Point", "coordinates": [ -97.763608629999965, 30.234209208000038 ] } },
{ "type": "Feature", "properties": { "FID": 83271, "NCESSCH": "480894000313", "LEAID": "4808940", "NAME": "DOBIE MIDDLE", "OPSTFIPS": "48", "STREET": "1200 RUNDBERG LN", "CITY": "AUSTIN", "STATE": "TX", "ZIP": "78753", "STFIP": "48", "CNTY": "48453", "NMCNTY": "Travis County", "LOCALE": "11", "LAT": 30.35418, "LON": -97.680109, "CBSA": "12420", "NMCBSA": "Austin-Round Rock, TX", "CBSATYPE": "1", "CSA": "N", "NMCSA": "N", "NECTA": "N", "NMNECTA": "N", "CD": "4810", "SLDL": "48050", "SLDU": "48014", "SCHOOLYEAR": "2018-2019" }, "geometry": { "type": "Point", "coordinates": [ -97.680116613999985, 30.354185235000045 ] } },
{ "type": "Feature", "properties": { "FID": 83272, "NCESSCH": "480894000314", "LEAID": "4808940", "NAME": "DOSS EL", "OPSTFIPS": "48", "STREET": "7005 NORTHLEDGE DR", "CITY": "AUSTIN", "STATE": "TX", "ZIP": "78731", "STFIP": "48", "CNTY": "48453", "NMCNTY": "Travis County", "LOCALE": "11", "LAT": 30.356013, "LON": -97.762907, "CBSA": "12420", "NMCBSA": "Austin-Round Rock, TX", "CBSATYPE": "1", "CSA": "N", "NMCSA": "N", "NECTA": "N", "NMNECTA": "N", "CD": "4825", "SLDL": "48048", "SLDU": "48014", "SCHOOLYEAR": "2018-2019" }, "geometry": { "type": "Point", "coordinates": [ -97.762914634999959, 30.356018232000054 ] } },
{ "type": "Feature", "properties": { "FID": 83273, "NCESSCH": "480894000315", "LEAID": "4808940", "NAME": "FULMORE M S", "OPSTFIPS": "48", "STREET": "201 E MARY ST", "CITY": "AUSTIN", "STATE": "TX", "ZIP": "78704", "STFIP": "48", "CNTY": "48453", "NMCNTY": "Travis County", "LOCALE": "11", "LAT": 30.243909, "LON": -97.750522, "CBSA": "12420", "NMCBSA": "Austin-Round Rock, TX", "CBSATYPE": "1", "CSA": "N", "NMCSA": "N", "NECTA": "N", "NMNECTA": "N", "CD": "4821", "SLDL": "48051", "SLDU": "48014", "SCHOOLYEAR": "2018-2019" }, "geometry": { "type": "Point", "coordinates": [ -97.75052962699999, 30.243914210000071 ] } },
{ "type": "Feature", "properties": { "FID": 83274, "NCESSCH": "480894000316", "LEAID": "4808940", "NAME": "GOVALLE EL", "OPSTFIPS": "48", "STREET": "3601 GOVALLE AVE", "CITY": "AUSTIN", "STATE": "TX", "ZIP": "78702", "STFIP": "48", "CNTY": "48453", "NMCNTY": "Travis County", "LOCALE": "11", "LAT": 30.263842, "LON": -97.698951, "CBSA": "12420", "NMCBSA": "Austin-Round Rock, TX", "CBSATYPE": "1", "CSA": "N", "NMCSA": "N", "NECTA": "N", "NMNECTA": "N", "CD": "4835", "SLDL": "48051", "SLDU": "48014", "SCHOOLYEAR": "2018-2019" }, "geometry": { "type": "Point", "coordinates": [ -97.698958614999981, 30.263847216000045 ] } },
{ "type": "Feature", "properties": { "FID": 83275, "NCESSCH": "480894000317", "LEAID": "4808940", "NAME": "GRAHAM EL", "OPSTFIPS": "48", "STREET": "11211 TOM ADAMS DR", "CITY": "AUSTIN", "STATE": "TX", "ZIP": "78753", "STFIP": "48", "CNTY": "48453", "NMCNTY": "Travis County", "LOCALE": "11", "LAT": 30.372511, "LON": -97.669252, "CBSA": "12420", "NMCBSA": "Austin-Round Rock, TX", "CBSATYPE": "1", "CSA": "N", "NMCSA": "N", "NECTA": "N", "NMNECTA": "N", "CD": "4810", "SLDL": "48050", "SLDU": "48014", "SCHOOLYEAR": "2018-2019" }, "geometry": { "type": "Point", "coordinates": [ -97.669259612999952, 30.372516239000049 ] } },
{ "type": "Feature", "properties": { "FID": 83276, "NCESSCH": "480894000318", "LEAID": "4808940", "NAME": "GULLETT EL", "OPSTFIPS": "48", "STREET": "6310 TREADWELL BLVD", "CITY": "AUSTIN", "STATE": "TX", "ZIP": "78757", "STFIP": "48", "CNTY": "48453", "NMCNTY": "Travis County", "LOCALE": "11", "LAT": 30.343798, "LON": -97.748694, "CBSA": "12420", "NMCBSA": "Austin-Round Rock, TX", "CBSATYPE": "1", "CSA": "N", "NMCSA": "N", "NECTA": "N", "NMNECTA": "N", "CD": "4810", "SLDL": "48049", "SLDU": "48014", "SCHOOLYEAR": "2018-2019" }, "geometry": { "type": "Point", "coordinates": [ -97.74870163099996, 30.343803230000049 ] } },
{ "type": "Feature", "properties": { "FID": 83277, "NCESSCH": "480894000319", "LEAID": "4808940", "NAME": "HARRIS EL", "OPSTFIPS": "48", "STREET": "1711 WHELESS LN", "CITY": "AUSTIN", "STATE": "TX", "ZIP": "78723", "STFIP": "48", "CNTY": "48453", "NMCNTY": "Travis County", "LOCALE": "11", "LAT": 30.314872, "LON": -97.691034, "CBSA": "12420", "NMCBSA": "Austin-Round Rock, TX", "CBSATYPE": "1", "CSA": "N", "NMCSA": "N", "NECTA": "N", "NMNECTA": "N", "CD": "4825", "SLDL": "48046", "SLDU": "48014", "SCHOOLYEAR": "2018-2019" }, "geometry": { "type": "Point", "coordinates": [ -97.691041614999961, 30.314877227000068 ] } },
{ "type": "Feature", "properties": { "FID": 83278, "NCESSCH": "480894000320", "LEAID": "4808940", "NAME": "HIGHLAND PARK EL", "OPSTFIPS": "48", "STREET": "4900 FAIRVIEW DR", "CITY": "AUSTIN", "STATE": "TX", "ZIP": "78731", "STFIP": "48", "CNTY": "48453", "NMCNTY": "Travis County", "LOCALE": "11", "LAT": 30.330614, "LON": -97.759989, "CBSA": "12420", "NMCBSA": "Austin-Round Rock, TX", "CBSATYPE": "1", "CSA": "N", "NMCSA": "N", "NECTA": "N", "NMNECTA": "N", "CD": "4810", "SLDL": "48049", "SLDU": "48014", "SCHOOLYEAR": "2018-2019" }, "geometry": { "type": "Point", "coordinates": [ -97.759996632999957, 30.330619227000057 ] } },
{ "type": "Feature", "properties": { "FID": 83279, "NCESSCH": "480894000321", "LEAID": "4808940", "NAME": "HILL EL", "OPSTFIPS": "48", "STREET": "8601 TALLWOOD DR", "CITY": "AUSTIN", "STATE": "TX", "ZIP": "78759", "STFIP": "48", "CNTY": "48453", "NMCNTY": "Travis County", "LOCALE": "11", "LAT": 30.376514, "LON": -97.748921, "CBSA": "12420", "NMCBSA": "Austin-Round Rock, TX", "CBSATYPE": "1", "CSA": "N", "NMCSA": "N", "NECTA": "N", "NMNECTA": "N", "CD": "4810", "SLDL": "48048", "SLDU": "48014", "SCHOOLYEAR": "2018-2019" }, "geometry": { "type": "Point", "coordinates": [ -97.74892863299999, 30.376519237000025 ] } },
{ "type": "Feature", "properties": { "FID": 83280, "NCESSCH": "480894000322", "LEAID": "4808940", "NAME": "HOUSTON EL", "OPSTFIPS": "48", "STREET": "5409 PONCIANA DR", "CITY": "AUSTIN", "STATE": "TX", "ZIP": "78744", "STFIP": "48", "CNTY": "48453", "NMCNTY": "Travis County", "LOCALE": "11", "LAT": 30.197779, "LON": -97.75474, "CBSA": "12420", "NMCBSA": "Austin-Round Rock, TX", "CBSATYPE": "1", "CSA": "N", "NMCSA": "N", "NECTA": "N", "NMNECTA": "N", "CD": "4835", "SLDL": "48051", "SLDU": "48021", "SCHOOLYEAR": "2018-2019" }, "geometry": { "type": "Point", "coordinates": [ -97.754747624999936, 30.197784202000037 ] } },
{ "type": "Feature", "properties": { "FID": 83281, "NCESSCH": "480894000325", "LEAID": "4808940", "NAME": "JOSLIN EL", "OPSTFIPS": "48", "STREET": "4500 MANCHACA RD", "CITY": "AUSTIN", "STATE": "TX", "ZIP": "78745", "STFIP": "48", "CNTY": "48453", "NMCNTY": "Travis County", "LOCALE": "11", "LAT": 30.227976, "LON": -97.790413, "CBSA": "12420", "NMCBSA": "Austin-Round Rock, TX", "CBSATYPE": "1", "CSA": "N", "NMCSA": "N", "NECTA": "N", "NMNECTA": "N", "CD": "4821", "SLDL": "48049", "SLDU": "48014", "SCHOOLYEAR": "2018-2019" }, "geometry": { "type": "Point", "coordinates": [ -97.790420635999965, 30.227981206000038 ] } },
{ "type": "Feature", "properties": { "FID": 83282, "NCESSCH": "480894000326", "LEAID": "4808940", "NAME": "LAMAR M S", "OPSTFIPS": "48", "STREET": "6201 WYNONA AVE", "CITY": "AUSTIN", "STATE": "TX", "ZIP": "78757", "STFIP": "48", "CNTY": "48453", "NMCNTY": "Travis County", "LOCALE": "11", "LAT": 30.337669, "LON": -97.740384, "CBSA": "12420", "NMCBSA": "Austin-Round Rock, TX", "CBSATYPE": "1", "CSA": "N", "NMCSA": "N", "NECTA": "N", "NMNECTA": "N", "CD": "4810", "SLDL": "48049", "SLDU": "48014", "SCHOOLYEAR": "2018-2019" }, "geometry": { "type": "Point", "coordinates": [ -97.740391627999941, 30.337674230000061 ] } },
{ "type": "Feature", "properties": { "FID": 83283, "NCESSCH": "480894000327", "LEAID": "4808940", "NAME": "LANIER H S", "OPSTFIPS": "48", "STREET": "1201 PEYTON GIN RD", "CITY": "AUSTIN", "STATE": "TX", "ZIP": "78758", "STFIP": "48", "CNTY": "48453", "NMCNTY": "Travis County", "LOCALE": "11", "LAT": 30.360598, "LON": -97.708042, "CBSA": "12420", "NMCBSA": "Austin-Round Rock, TX", "CBSATYPE": "1", "CSA": "N", "NMCSA": "N", "NECTA": "N", "NMNECTA": "N", "CD": "4810", "SLDL": "48046", "SLDU": "48014", "SCHOOLYEAR": "2018-2019" }, "geometry": { "type": "Point", "coordinates": [ -97.708049621999976, 30.360603235000042 ] } },
{ "type": "Feature", "properties": { "FID": 83284, "NCESSCH": "480894000328", "LEAID": "4808940", "NAME": "LEE EL", "OPSTFIPS": "48", "STREET": "3308 HAMPTON RD", "CITY": "AUSTIN", "STATE": "TX", "ZIP": "78705", "STFIP": "48", "CNTY": "48453", "NMCNTY": "Travis County", "LOCALE": "11", "LAT": 30.293424, "LON": -97.727387, "CBSA": "12420", "NMCBSA": "Austin-Round Rock, TX", "CBSATYPE": "1", "CSA": "N", "NMCSA": "N", "NECTA": "N", "NMNECTA": "N", "CD": "4825", "SLDL": "48049", "SLDU": "48014", "SCHOOLYEAR": "2018-2019" }, "geometry": { "type": "Point", "coordinates": [ -97.727394623999942, 30.293429221000054 ] } },
{ "type": "Feature", "properties": { "FID": 83285, "NCESSCH": "480894000329", "LEAID": "4808940", "NAME": "LINDER EL", "OPSTFIPS": "48", "STREET": "2801 METCALFE RD", "CITY": "AUSTIN", "STATE": "TX", "ZIP": "78741", "STFIP": "48", "CNTY": "48453", "NMCNTY": "Travis County", "LOCALE": "11", "LAT": 30.224365, "LON": -97.737678, "CBSA": "12420", "NMCBSA": "Austin-Round Rock, TX", "CBSATYPE": "1", "CSA": "N", "NMCSA": "N", "NECTA": "N", "NMNECTA": "N", "CD": "4835", "SLDL": "48051", "SLDU": "48021", "SCHOOLYEAR": "2018-2019" }, "geometry": { "type": "Point", "coordinates": [ -97.737685621999958, 30.224370208000039 ] } },
{ "type": "Feature", "properties": { "FID": 83286, "NCESSCH": "480894000330", "LEAID": "4808940", "NAME": "MAPLEWOOD EL", "OPSTFIPS": "48", "STREET": "3808 MAPLEWOOD AVE", "CITY": "AUSTIN", "STATE": "TX", "ZIP": "78722", "STFIP": "48", "CNTY": "48453", "NMCNTY": "Travis County", "LOCALE": "11", "LAT": 30.293179, "LON": -97.714748, "CBSA": "12420", "NMCBSA": "Austin-Round Rock, TX", "CBSATYPE": "1", "CSA": "N", "NMCSA": "N", "NECTA": "N", "NMNECTA": "N", "CD": "4825", "SLDL": "48046", "SLDU": "48014", "SCHOOLYEAR": "2018-2019" }, "geometry": { "type": "Point", "coordinates": [ -97.714755619999949, 30.293184222000036 ] } },
{ "type": "Feature", "properties": { "FID": 83287, "NCESSCH": "480894000331", "LEAID": "4808940", "NAME": "MARTIN MIDDLE", "OPSTFIPS": "48", "STREET": "1601 HASKELL ST", "CITY": "AUSTIN", "STATE": "TX", "ZIP": "78702", "STFIP": "48", "CNTY": "48453", "NMCNTY": "Travis County", "LOCALE": "11", "LAT": 30.252742, "LON": -97.729761, "CBSA": "12420", "NMCBSA": "Austin-Round Rock, TX", "CBSATYPE": "1", "CSA": "N", "NMCSA": "N", "NECTA": "N", "NMNECTA": "N", "CD": "4835", "SLDL": "48051", "SLDU": "48014", "SCHOOLYEAR": "2018-2019" }, "geometry": { "type": "Point", "coordinates": [ -97.729768621999938, 30.252747214000067 ] } },
{ "type": "Feature", "properties": { "FID": 83288, "NCESSCH": "480894000332", "LEAID": "4808940", "NAME": "MATHEWS EL", "OPSTFIPS": "48", "STREET": "906 W LYNN ST", "CITY": "AUSTIN", "STATE": "TX", "ZIP": "78703", "STFIP": "48", "CNTY": "48453", "NMCNTY": "Travis County", "LOCALE": "11", "LAT": 30.278332, "LON": -97.760888, "CBSA": "12420", "NMCBSA": "Austin-Round Rock, TX", "CBSATYPE": "1", "CSA": "N", "NMCSA": "N", "NECTA": "N", "NMNECTA": "N", "CD": "4821", "SLDL": "48049", "SLDU": "48014", "SCHOOLYEAR": "2018-2019" }, "geometry": { "type": "Point", "coordinates": [ -97.760895630999983, 30.278337217000058 ] } },
{ "type": "Feature", "properties": { "FID": 83289, "NCESSCH": "480894000333", "LEAID": "4808940", "NAME": "MCCALLUM H S", "OPSTFIPS": "48", "STREET": "5600 SUNSHINE DR", "CITY": "AUSTIN", "STATE": "TX", "ZIP": "78756", "STFIP": "48", "CNTY": "48453", "NMCNTY": "Travis County", "LOCALE": "11", "LAT": 30.326565, "LON": -97.729715, "CBSA": "12420", "NMCBSA": "Austin-Round Rock, TX", "CBSATYPE": "1", "CSA": "N", "NMCSA": "N", "NECTA": "N", "NMNECTA": "N", "CD": "4810", "SLDL": "48049", "SLDU": "48014", "SCHOOLYEAR": "2018-2019" }, "geometry": { "type": "Point", "coordinates": [ -97.729722625999955, 30.326570228000037 ] } },
{ "type": "Feature", "properties": { "FID": 83291, "NCESSCH": "480894000335", "LEAID": "4808940", "NAME": "METZ EL", "OPSTFIPS": "48", "STREET": "84 ROBERT MARTINEZ JR ST", "CITY": "AUSTIN", "STATE": "TX", "ZIP": "78702", "STFIP": "48", "CNTY": "48453", "NMCNTY": "Travis County", "LOCALE": "11", "LAT": 30.25471, "LON": -97.722391, "CBSA": "12420", "NMCBSA": "Austin-Round Rock, TX", "CBSATYPE": "1", "CSA": "N", "NMCSA": "N", "NECTA": "N", "NMNECTA": "N", "CD": "4835", "SLDL": "48051", "SLDU": "48014", "SCHOOLYEAR": "2018-2019" }, "geometry": { "type": "Point", "coordinates": [ -97.722398619999979, 30.254715214000043 ] } },
{ "type": "Feature", "properties": { "FID": 83292, "NCESSCH": "480894000336", "LEAID": "4808940", "NAME": "MURCHISON MIDDLE", "OPSTFIPS": "48", "STREET": "3700 N HILLS DR", "CITY": "AUSTIN", "STATE": "TX", "ZIP": "78731", "STFIP": "48", "CNTY": "48453", "NMCNTY": "Travis County", "LOCALE": "11", "LAT": 30.354132, "LON": -97.758712, "CBSA": "12420", "NMCBSA": "Austin-Round Rock, TX", "CBSATYPE": "1", "CSA": "N", "NMCSA": "N", "NECTA": "N", "NMNECTA": "N", "CD": "4825", "SLDL": "48048", "SLDU": "48014", "SCHOOLYEAR": "2018-2019" }, "geometry": { "type": "Point", "coordinates": [ -97.758719633999988, 30.354137232000028 ] } },
{ "type": "Feature", "properties": { "FID": 83293, "NCESSCH": "480894000337", "LEAID": "4808940", "NAME": "NORMAN EL", "OPSTFIPS": "48", "STREET": "4001 TANNEHILL LN", "CITY": "AUSTIN", "STATE": "TX", "ZIP": "78721", "STFIP": "48", "CNTY": "48453", "NMCNTY": "Travis County", "LOCALE": "11", "LAT": 30.279469, "LON": -97.686067, "CBSA": "12420", "NMCBSA": "Austin-Round Rock, TX", "CBSATYPE": "1", "CSA": "N", "NMCSA": "N", "NECTA": "N", "NMNECTA": "N", "CD": "4825", "SLDL": "48046", "SLDU": "48014", "SCHOOLYEAR": "2018-2019" }, "geometry": { "type": "Point", "coordinates": [ -97.68607461299996, 30.279474220000054 ] } },
{ "type": "Feature", "properties": { "FID": 83294, "NCESSCH": "480894000338", "LEAID": "4808940", "NAME": "O HENRY MIDDLE", "OPSTFIPS": "48", "STREET": "2610 W 10TH ST", "CITY": "AUSTIN", "STATE": "TX", "ZIP": "78703", "STFIP": "48", "CNTY": "48453", "NMCNTY": "Travis County", "LOCALE": "11", "LAT": 30.285755, "LON": -97.774089, "CBSA": "12420", "NMCBSA": "Austin-Round Rock, TX", "CBSATYPE": "1", "CSA": "N", "NMCSA": "N", "NECTA": "N", "NMNECTA": "N", "CD": "4825", "SLDL": "48048", "SLDU": "48014", "SCHOOLYEAR": "2018-2019" }, "geometry": { "type": "Point", "coordinates": [ -97.774096634999978, 30.285760218000064 ] } },
{ "type": "Feature", "properties": { "FID": 83295, "NCESSCH": "480894000339", "LEAID": "4808940", "NAME": "OAK HILL EL", "OPSTFIPS": "48", "STREET": "6101 PATTON RANCH RD", "CITY": "AUSTIN", "STATE": "TX", "ZIP": "78735", "STFIP": "48", "CNTY": "48453", "NMCNTY": "Travis County", "LOCALE": "11", "LAT": 30.238018, "LON": -97.858644, "CBSA": "12420", "NMCBSA": "Austin-Round Rock, TX", "CBSATYPE": "1", "CSA": "N", "NMCSA": "N", "NECTA": "N", "NMNECTA": "N", "CD": "4821", "SLDL": "48048", "SLDU": "48014", "SCHOOLYEAR": "2018-2019" }, "geometry": { "type": "Point", "coordinates": [ -97.858651652999981, 30.238023206000037 ] } },
{ "type": "Feature", "properties": { "FID": 83296, "NCESSCH": "480894000340", "LEAID": "4808940", "NAME": "OAK SPRINGS EL", "OPSTFIPS": "48", "STREET": "3601 WEBBERVILLE RD", "CITY": "AUSTIN", "STATE": "TX", "ZIP": "78702", "STFIP": "48", "CNTY": "48453", "NMCNTY": "Travis County", "LOCALE": "11", "LAT": 30.271787, "LON": -97.70478, "CBSA": "12420", "NMCBSA": "Austin-Round Rock, TX", "CBSATYPE": "1", "CSA": "N", "NMCSA": "N", "NECTA": "N", "NMNECTA": "N", "CD": "4835", "SLDL": "48051", "SLDU": "48014", "SCHOOLYEAR": "2018-2019" }, "geometry": { "type": "Point", "coordinates": [ -97.704787616999965, 30.27179221800003 ] } },
{ "type": "Feature", "properties": { "FID": 83297, "NCESSCH": "480894000341", "LEAID": "4808940", "NAME": "ODOM EL", "OPSTFIPS": "48", "STREET": "1010 TURTLE CREEK BLVD", "CITY": "AUSTIN", "STATE": "TX", "ZIP": "78745", "STFIP": "48", "CNTY": "48453", "NMCNTY": "Travis County", "LOCALE": "11", "LAT": 30.205669, "LON": -97.789623, "CBSA": "12420", "NMCBSA": "Austin-Round Rock, TX", "CBSATYPE": "1", "CSA": "N", "NMCSA": "N", "NECTA": "N", "NMNECTA": "N", "CD": "4835", "SLDL": "48048", "SLDU": "48021", "SCHOOLYEAR": "2018-2019" }, "geometry": { "type": "Point", "coordinates": [ -97.78963063499998, 30.205674201000079 ] } },
{ "type": "Feature", "properties": { "FID": 83298, "NCESSCH": "480894000342", "LEAID": "4808940", "NAME": "ORTEGA EL", "OPSTFIPS": "48", "STREET": "1135 GARLAND AVE", "CITY": "AUSTIN", "STATE": "TX", "ZIP": "78721", "STFIP": "48", "CNTY": "48453", "NMCNTY": "Travis County", "LOCALE": "11", "LAT": 30.270031, "LON": -97.684399, "CBSA": "12420", "NMCBSA": "Austin-Round Rock, TX", "CBSATYPE": "1", "CSA": "N", "NMCSA": "N", "NECTA": "N", "NMNECTA": "N", "CD": "4835", "SLDL": "48046", "SLDU": "48014", "SCHOOLYEAR": "2018-2019" }, "geometry": { "type": "Point", "coordinates": [ -97.684406610999986, 30.27003621800003 ] } },
{ "type": "Feature", "properties": { "FID": 83299, "NCESSCH": "480894000344", "LEAID": "4808940", "NAME": "PEASE EL", "OPSTFIPS": "48", "STREET": "1106 RIO GRANDE ST", "CITY": "AUSTIN", "STATE": "TX", "ZIP": "78701", "STFIP": "48", "CNTY": "48453", "NMCNTY": "Travis County", "LOCALE": "11", "LAT": 30.275312, "LON": -97.748138, "CBSA": "12420", "NMCBSA": "Austin-Round Rock, TX", "CBSATYPE": "1", "CSA": "N", "NMCSA": "N", "NECTA": "N", "NMNECTA": "N", "CD": "4821", "SLDL": "48049", "SLDU": "48014", "SCHOOLYEAR": "2018-2019" }, "geometry": { "type": "Point", "coordinates": [ -97.748145627999975, 30.275317217000065 ] } },
{ "type": "Feature", "properties": { "FID": 83300, "NCESSCH": "480894000345", "LEAID": "4808940", "NAME": "PECAN SPRINGS EL", "OPSTFIPS": "48", "STREET": "3100 ROGGE LN", "CITY": "AUSTIN", "STATE": "TX", "ZIP": "78723", "STFIP": "48", "CNTY": "48453", "NMCNTY": "Travis County", "LOCALE": "11", "LAT": 30.303255, "LON": -97.676532, "CBSA": "12420", "NMCBSA": "Austin-Round Rock, TX", "CBSATYPE": "1", "CSA": "N", "NMCSA": "N", "NECTA": "N", "NMNECTA": "N", "CD": "4825", "SLDL": "48046", "SLDU": "48014", "SCHOOLYEAR": "2018-2019" }, "geometry": { "type": "Point", "coordinates": [ -97.676539611999942, 30.303260225000031 ] } },
{ "type": "Feature", "properties": { "FID": 83301, "NCESSCH": "480894000346", "LEAID": "4808940", "NAME": "PILLOW EL", "OPSTFIPS": "48", "STREET": "3025 CROSSCREEK DR", "CITY": "AUSTIN", "STATE": "TX", "ZIP": "78757", "STFIP": "48", "CNTY": "48453", "NMCNTY": "Travis County", "LOCALE": "11", "LAT": 30.369199, "LON": -97.733212, "CBSA": "12420", "NMCBSA": "Austin-Round Rock, TX", "CBSATYPE": "1", "CSA": "N", "NMCSA": "N", "NECTA": "N", "NMNECTA": "N", "CD": "4810", "SLDL": "48049", "SLDU": "48014", "SCHOOLYEAR": "2018-2019" }, "geometry": { "type": "Point", "coordinates": [ -97.733219627999972, 30.36920423600003 ] } },
{ "type": "Feature", "properties": { "FID": 83302, "NCESSCH": "480894000347", "LEAID": "4808940", "NAME": "PLEASANT HILL EL", "OPSTFIPS": "48", "STREET": "6405 CIR S RD", "CITY": "AUSTIN", "STATE": "TX", "ZIP": "78745", "STFIP": "48", "CNTY": "48453", "NMCNTY": "Travis County", "LOCALE": "11", "LAT": 30.196451, "LON": -97.776158, "CBSA": "12420", "NMCBSA": "Austin-Round Rock, TX", "CBSATYPE": "1", "CSA": "N", "NMCSA": "N", "NECTA": "N", "NMNECTA": "N", "CD": "4835", "SLDL": "48051", "SLDU": "48021", "SCHOOLYEAR": "2018-2019" }, "geometry": { "type": "Point", "coordinates": [ -97.776165630999969, 30.196456200000057 ] } },
{ "type": "Feature", "properties": { "FID": 83303, "NCESSCH": "480894000350", "LEAID": "4808940", "NAME": "REAGAN H S", "OPSTFIPS": "48", "STREET": "7104 BERKMAN DR", "CITY": "AUSTIN", "STATE": "TX", "ZIP": "78752", "STFIP": "48", "CNTY": "48453", "NMCNTY": "Travis County", "LOCALE": "11", "LAT": 30.324213, "LON": -97.691048, "CBSA": "12420", "NMCBSA": "Austin-Round Rock, TX", "CBSATYPE": "1", "CSA": "N", "NMCSA": "N", "NECTA": "N", "NMNECTA": "N", "CD": "4810", "SLDL": "48046", "SLDU": "48014", "SCHOOLYEAR": "2018-2019" }, "geometry": { "type": "Point", "coordinates": [ -97.691055615999971, 30.324218229000053 ] } },
{ "type": "Feature", "properties": { "FID": 83304, "NCESSCH": "480894000351", "LEAID": "4808940", "NAME": "REILLY EL", "OPSTFIPS": "48", "STREET": "405 DENSON DR", "CITY": "AUSTIN", "STATE": "TX", "ZIP": "78752", "STFIP": "48", "CNTY": "48453", "NMCNTY": "Travis County", "LOCALE": "11", "LAT": 30.327887, "LON": -97.71976, "CBSA": "12420", "NMCBSA": "Austin-Round Rock, TX", "CBSATYPE": "1", "CSA": "N", "NMCSA": "N", "NECTA": "N", "NMNECTA": "N", "CD": "4810", "SLDL": "48049", "SLDU": "48014", "SCHOOLYEAR": "2018-2019" }, "geometry": { "type": "Point", "coordinates": [ -97.719767622999939, 30.327892228000053 ] } },
{ "type": "Feature", "properties": { "FID": 83305, "NCESSCH": "480894000352", "LEAID": "4808940", "NAME": "RIDGETOP EL", "OPSTFIPS": "48", "STREET": "5005 CASWELL AVE", "CITY": "AUSTIN", "STATE": "TX", "ZIP": "78751", "STFIP": "48", "CNTY": "48453", "NMCNTY": "Travis County", "LOCALE": "11", "LAT": 30.311793, "LON": -97.716336, "CBSA": "12420", "NMCBSA": "Austin-Round Rock, TX", "CBSATYPE": "1", "CSA": "N", "NMCSA": "N", "NECTA": "N", "NMNECTA": "N", "CD": "4825", "SLDL": "48049", "SLDU": "48014", "SCHOOLYEAR": "2018-2019" }, "geometry": { "type": "Point", "coordinates": [ -97.716343621999954, 30.311798226000064 ] } },
{ "type": "Feature", "properties": { "FID": 83306, "NCESSCH": "480894000355", "LEAID": "4808940", "NAME": "SANCHEZ EL", "OPSTFIPS": "48", "STREET": "73 SAN MARCOS ST", "CITY": "AUSTIN", "STATE": "TX", "ZIP": "78702", "STFIP": "48", "CNTY": "48453", "NMCNTY": "Travis County", "LOCALE": "11", "LAT": 30.258153, "LON": -97.735104, "CBSA": "12420", "NMCBSA": "Austin-Round Rock, TX", "CBSATYPE": "1", "CSA": "N", "NMCSA": "N", "NECTA": "N", "NMNECTA": "N", "CD": "4835", "SLDL": "48051", "SLDU": "48014", "SCHOOLYEAR": "2018-2019" }, "geometry": { "type": "Point", "coordinates": [ -97.735111622999966, 30.258158214000048 ] } },
{ "type": "Feature", "properties": { "FID": 83307, "NCESSCH": "480894000356", "LEAID": "4808940", "NAME": "SIMS EL", "OPSTFIPS": "48", "STREET": "1203 SPRINGDALE RD", "CITY": "AUSTIN", "STATE": "TX", "ZIP": "78721", "STFIP": "48", "CNTY": "48453", "NMCNTY": "Travis County", "LOCALE": "11", "LAT": 30.279469, "LON": -97.686067, "CBSA": "12420", "NMCBSA": "Austin-Round Rock, TX", "CBSATYPE": "1", "CSA": "N", "NMCSA": "N", "NECTA": "N", "NMNECTA": "N", "CD": "4825", "SLDL": "48046", "SLDU": "48014", "SCHOOLYEAR": "2018-2019" }, "geometry": { "type": "Point", "coordinates": [ -97.68607461299996, 30.279474220000054 ] } },
{ "type": "Feature", "properties": { "FID": 83308, "NCESSCH": "480894000357", "LEAID": "4808940", "NAME": "ST ELMO EL", "OPSTFIPS": "48", "STREET": "600 W ST ELMO RD", "CITY": "AUSTIN", "STATE": "TX", "ZIP": "78745", "STFIP": "48", "CNTY": "48453", "NMCNTY": "Travis County", "LOCALE": "11", "LAT": 30.221865, "LON": -97.77348, "CBSA": "12420", "NMCBSA": "Austin-Round Rock, TX", "CBSATYPE": "1", "CSA": "N", "NMCSA": "N", "NECTA": "N", "NMNECTA": "N", "CD": "4821", "SLDL": "48049", "SLDU": "48021", "SCHOOLYEAR": "2018-2019" }, "geometry": { "type": "Point", "coordinates": [ -97.773487630999966, 30.221870206000062 ] } },
{ "type": "Feature", "properties": { "FID": 83309, "NCESSCH": "480894000358", "LEAID": "4808940", "NAME": "SUMMITT EL", "OPSTFIPS": "48", "STREET": "12207 BRIGADOON LN", "CITY": "AUSTIN", "STATE": "TX", "ZIP": "78727", "STFIP": "48", "CNTY": "48453", "NMCNTY": "Travis County", "LOCALE": "11", "LAT": 30.418476, "LON": -97.719205, "CBSA": "12420", "NMCBSA": "Austin-Round Rock, TX", "CBSATYPE": "1", "CSA": "N", "NMCSA": "N", "NECTA": "N", "NMNECTA": "N", "CD": "4817", "SLDL": "48050", "SLDU": "48014", "SCHOOLYEAR": "2018-2019" }, "geometry": { "type": "Point", "coordinates": [ -97.71921262699999, 30.418481246000056 ] } },
{ "type": "Feature", "properties": { "FID": 83310, "NCESSCH": "480894000359", "LEAID": "4808940", "NAME": "SUNSET VALLEY EL", "OPSTFIPS": "48", "STREET": "3000 JONES RD", "CITY": "AUSTIN", "STATE": "TX", "ZIP": "78745", "STFIP": "48", "CNTY": "48453", "NMCNTY": "Travis County", "LOCALE": "21", "LAT": 30.227954, "LON": -97.806635, "CBSA": "12420", "NMCBSA": "Austin-Round Rock, TX", "CBSATYPE": "1", "CSA": "N", "NMCSA": "N", "NECTA": "N", "NMNECTA": "N", "CD": "4821", "SLDL": "48048", "SLDU": "48014", "SCHOOLYEAR": "2018-2019" }, "geometry": { "type": "Point", "coordinates": [ -97.80664264, 30.227959206000037 ] } },
{ "type": "Feature", "properties": { "FID": 83311, "NCESSCH": "480894000360", "LEAID": "4808940", "NAME": "TRAVIS H S", "OPSTFIPS": "48", "STREET": "1211 E OLTORF ST", "CITY": "AUSTIN", "STATE": "TX", "ZIP": "78704", "STFIP": "48", "CNTY": "48453", "NMCNTY": "Travis County", "LOCALE": "11", "LAT": 30.233019, "LON": -97.744162, "CBSA": "12420", "NMCBSA": "Austin-Round Rock, TX", "CBSATYPE": "1", "CSA": "N", "NMCSA": "N", "NECTA": "N", "NMNECTA": "N", "CD": "4821", "SLDL": "48051", "SLDU": "48014", "SCHOOLYEAR": "2018-2019" }, "geometry": { "type": "Point", "coordinates": [ -97.744169624999984, 30.233024209000064 ] } },
{ "type": "Feature", "properties": { "FID": 83312, "NCESSCH": "480894000361", "LEAID": "4808940", "NAME": "TRAVIS HTS EL", "OPSTFIPS": "48", "STREET": "2010 ALAMEDA DR", "CITY": "AUSTIN", "STATE": "TX", "ZIP": "78704", "STFIP": "48", "CNTY": "48453", "NMCNTY": "Travis County", "LOCALE": "11", "LAT": 30.24146, "LON": -97.74575, "CBSA": "12420", "NMCBSA": "Austin-Round Rock, TX", "CBSATYPE": "1", "CSA": "N", "NMCSA": "N", "NECTA": "N", "NMNECTA": "N", "CD": "4821", "SLDL": "48051", "SLDU": "48014", "SCHOOLYEAR": "2018-2019" }, "geometry": { "type": "Point", "coordinates": [ -97.745757624999953, 30.241465210000058 ] } },
{ "type": "Feature", "properties": { "FID": 83313, "NCESSCH": "480894000362", "LEAID": "4808940", "NAME": "WALNUT CREEK EL", "OPSTFIPS": "48", "STREET": "401 W BRAKER LN", "CITY": "AUSTIN", "STATE": "TX", "ZIP": "78753", "STFIP": "48", "CNTY": "48453", "NMCNTY": "Travis County", "LOCALE": "11", "LAT": 30.37981, "LON": -97.683974, "CBSA": "12420", "NMCBSA": "Austin-Round Rock, TX", "CBSATYPE": "1", "CSA": "N", "NMCSA": "N", "NECTA": "N", "NMNECTA": "N", "CD": "4810", "SLDL": "48050", "SLDU": "48014", "SCHOOLYEAR": "2018-2019" }, "geometry": { "type": "Point", "coordinates": [ -97.683981616999972, 30.379815240000028 ] } },
{ "type": "Feature", "properties": { "FID": 83314, "NCESSCH": "480894000364", "LEAID": "4808940", "NAME": "WILLIAMS EL", "OPSTFIPS": "48", "STREET": "500 MAIRO ST", "CITY": "AUSTIN", "STATE": "TX", "ZIP": "78748", "STFIP": "48", "CNTY": "48453", "NMCNTY": "Travis County", "LOCALE": "11", "LAT": 30.18116, "LON": -97.791519, "CBSA": "12420", "NMCBSA": "Austin-Round Rock, TX", "CBSATYPE": "1", "CSA": "N", "NMCSA": "N", "NECTA": "N", "NMNECTA": "N", "CD": "4835", "SLDL": "48048", "SLDU": "48021", "SCHOOLYEAR": "2018-2019" }, "geometry": { "type": "Point", "coordinates": [ -97.791526633999979, 30.181165197000041 ] } },
{ "type": "Feature", "properties": { "FID": 83315, "NCESSCH": "480894000365", "LEAID": "4808940", "NAME": "WINN EL", "OPSTFIPS": "48", "STREET": "3500 SUSQUEHANNA LN", "CITY": "AUSTIN", "STATE": "TX", "ZIP": "78723", "STFIP": "48", "CNTY": "48453", "NMCNTY": "Travis County", "LOCALE": "11", "LAT": 30.313921, "LON": -97.665365, "CBSA": "12420", "NMCBSA": "Austin-Round Rock, TX", "CBSATYPE": "1", "CSA": "N", "NMCSA": "N", "NECTA": "N", "NMNECTA": "N", "CD": "4825", "SLDL": "48046", "SLDU": "48014", "SCHOOLYEAR": "2018-2019" }, "geometry": { "type": "Point", "coordinates": [ -97.665372608999974, 30.313926227000024 ] } },
{ "type": "Feature", "properties": { "FID": 83316, "NCESSCH": "480894000366", "LEAID": "4808940", "NAME": "WOOLDRIDGE EL", "OPSTFIPS": "48", "STREET": "1412 NORSEMAN TER", "CITY": "AUSTIN", "STATE": "TX", "ZIP": "78758", "STFIP": "48", "CNTY": "48453", "NMCNTY": "Travis County", "LOCALE": "11", "LAT": 30.364872, "LON": -97.709836, "CBSA": "12420", "NMCBSA": "Austin-Round Rock, TX", "CBSATYPE": "1", "CSA": "N", "NMCSA": "N", "NECTA": "N", "NMNECTA": "N", "CD": "4810", "SLDL": "48046", "SLDU": "48014", "SCHOOLYEAR": "2018-2019" }, "geometry": { "type": "Point", "coordinates": [ -97.709843622999983, 30.364877236000041 ] } },
{ "type": "Feature", "properties": { "FID": 83317, "NCESSCH": "480894000367", "LEAID": "4808940", "NAME": "WOOTEN EL", "OPSTFIPS": "48", "STREET": "1406 DALE DR", "CITY": "AUSTIN", "STATE": "TX", "ZIP": "78757", "STFIP": "48", "CNTY": "48453", "NMCNTY": "Travis County", "LOCALE": "11", "LAT": 30.353561, "LON": -97.719363, "CBSA": "12420", "NMCBSA": "Austin-Round Rock, TX", "CBSATYPE": "1", "CSA": "N", "NMCSA": "N", "NECTA": "N", "NMNECTA": "N", "CD": "4810", "SLDL": "48049", "SLDU": "48014", "SCHOOLYEAR": "2018-2019" }, "geometry": { "type": "Point", "coordinates": [ -97.719370623999964, 30.353566234000027 ] } },
{ "type": "Feature", "properties": { "FID": 83318, "NCESSCH": "480894000368", "LEAID": "4808940", "NAME": "ZAVALA EL", "OPSTFIPS": "48", "STREET": "310 ROBERT MARTINEZ JR ST", "CITY": "AUSTIN", "STATE": "TX", "ZIP": "78702", "STFIP": "48", "CNTY": "48453", "NMCNTY": "Travis County", "LOCALE": "11", "LAT": 30.258431, "LON": -97.7205, "CBSA": "12420", "NMCBSA": "Austin-Round Rock, TX", "CBSATYPE": "1", "CSA": "N", "NMCSA": "N", "NECTA": "N", "NMNECTA": "N", "CD": "4835", "SLDL": "48051", "SLDU": "48014", "SCHOOLYEAR": "2018-2019" }, "geometry": { "type": "Point", "coordinates": [ -97.720507619999978, 30.258436215000074 ] } },
{ "type": "Feature", "properties": { "FID": 83319, "NCESSCH": "480894000369", "LEAID": "4808940", "NAME": "ZILKER EL", "OPSTFIPS": "48", "STREET": "1900 BLUEBONNET LN", "CITY": "AUSTIN", "STATE": "TX", "ZIP": "78704", "STFIP": "48", "CNTY": "48453", "NMCNTY": "Travis County", "LOCALE": "11", "LAT": 30.252623, "LON": -97.7741, "CBSA": "12420", "NMCBSA": "Austin-Round Rock, TX", "CBSATYPE": "1", "CSA": "N", "NMCSA": "N", "NECTA": "N", "NMNECTA": "N", "CD": "4821", "SLDL": "48049", "SLDU": "48014", "SCHOOLYEAR": "2018-2019" }, "geometry": { "type": "Point", "coordinates": [ -97.774107632999971, 30.252628212000047 ] } },
{ "type": "Feature", "properties": { "FID": 83320, "NCESSCH": "480894002468", "LEAID": "4808940", "NAME": "WEBB M S", "OPSTFIPS": "48", "STREET": "601 E ST JOHNS AVE", "CITY": "AUSTIN", "STATE": "TX", "ZIP": "78752", "STFIP": "48", "CNTY": "48453", "NMCNTY": "Travis County", "LOCALE": "11", "LAT": 30.33331, "LON": -97.706987, "CBSA": "12420", "NMCBSA": "Austin-Round Rock, TX", "CBSATYPE": "1", "CSA": "N", "NMCSA": "N", "NECTA": "N", "NMNECTA": "N", "CD": "4810", "SLDL": "48046", "SLDU": "48014", "SCHOOLYEAR": "2018-2019" }, "geometry": { "type": "Point", "coordinates": [ -97.706994619999989, 30.333315230000039 ] } },
{ "type": "Feature", "properties": { "FID": 83321, "NCESSCH": "480894002470", "LEAID": "4808940", "NAME": "JORDAN EL", "OPSTFIPS": "48", "STREET": "6711 JOHNNY MORRIS RD", "CITY": "AUSTIN", "STATE": "TX", "ZIP": "78724", "STFIP": "48", "CNTY": "48453", "NMCNTY": "Travis County", "LOCALE": "11", "LAT": 30.301161, "LON": -97.646833, "CBSA": "12420", "NMCBSA": "Austin-Round Rock, TX", "CBSATYPE": "1", "CSA": "N", "NMCSA": "N", "NECTA": "N", "NMNECTA": "N", "CD": "4835", "SLDL": "48046", "SLDU": "48014", "SCHOOLYEAR": "2018-2019" }, "geometry": { "type": "Point", "coordinates": [ -97.646840603999976, 30.301166226000078 ] } },
{ "type": "Feature", "properties": { "FID": 83322, "NCESSCH": "480894002776", "LEAID": "4808940", "NAME": "KIKER EL", "OPSTFIPS": "48", "STREET": "5913 LA CROSSE AVE", "CITY": "AUSTIN", "STATE": "TX", "ZIP": "78739", "STFIP": "48", "CNTY": "48453", "NMCNTY": "Travis County", "LOCALE": "11", "LAT": 30.191536, "LON": -97.881246, "CBSA": "12420", "NMCBSA": "Austin-Round Rock, TX", "CBSATYPE": "1", "CSA": "N", "NMCSA": "N", "NECTA": "N", "NMNECTA": "N", "CD": "4825", "SLDL": "48047", "SLDU": "48025", "SCHOOLYEAR": "2018-2019" }, "geometry": { "type": "Point", "coordinates": [ -97.881253655999956, 30.19154119600006 ] } },
{ "type": "Feature", "properties": { "FID": 83323, "NCESSCH": "480894005394", "LEAID": "4808940", "NAME": "ALLAN EL", "OPSTFIPS": "48", "STREET": "4900 GONZALES ST", "CITY": "AUSTIN", "STATE": "TX", "ZIP": "78702", "STFIP": "48", "CNTY": "48453", "NMCNTY": "Travis County", "LOCALE": "11", "LAT": 30.256059, "LON": -97.697161, "CBSA": "12420", "NMCBSA": "Austin-Round Rock, TX", "CBSATYPE": "1", "CSA": "N", "NMCSA": "N", "NECTA": "N", "NMNECTA": "N", "CD": "4835", "SLDL": "48051", "SLDU": "48014", "SCHOOLYEAR": "2018-2019" }, "geometry": { "type": "Point", "coordinates": [ -97.697168613999963, 30.256064215000038 ] } },
{ "type": "Feature", "properties": { "FID": 83324, "NCESSCH": "480894005396", "LEAID": "4808940", "NAME": "ROSEDALE", "OPSTFIPS": "48", "STREET": "2117 W 49TH ST", "CITY": "AUSTIN", "STATE": "TX", "ZIP": "78756", "STFIP": "48", "CNTY": "48453", "NMCNTY": "Travis County", "LOCALE": "11", "LAT": 30.319874, "LON": -97.740214, "CBSA": "12420", "NMCBSA": "Austin-Round Rock, TX", "CBSATYPE": "1", "CSA": "N", "NMCSA": "N", "NECTA": "N", "NMNECTA": "N", "CD": "4810", "SLDL": "48049", "SLDU": "48014", "SCHOOLYEAR": "2018-2019" }, "geometry": { "type": "Point", "coordinates": [ -97.740221627999972, 30.319879226000069 ] } },
{ "type": "Feature", "properties": { "FID": 83325, "NCESSCH": "480894005398", "LEAID": "4808940", "NAME": "LANGFORD EL", "OPSTFIPS": "48", "STREET": "2206 BLUE MEADOW DR", "CITY": "AUSTIN", "STATE": "TX", "ZIP": "78744", "STFIP": "48", "CNTY": "48453", "NMCNTY": "Travis County", "LOCALE": "11", "LAT": 30.182292, "LON": -97.76349, "CBSA": "12420", "NMCBSA": "Austin-Round Rock, TX", "CBSATYPE": "1", "CSA": "N", "NMCSA": "N", "NECTA": "N", "NMNECTA": "N", "CD": "4835", "SLDL": "48051", "SLDU": "48021", "SCHOOLYEAR": "2018-2019" }, "geometry": { "type": "Point", "coordinates": [ -97.763497626999936, 30.182297198000072 ] } },
{ "type": "Feature", "properties": { "FID": 83326, "NCESSCH": "480894005486", "LEAID": "4808940", "NAME": "BAILEY M S", "OPSTFIPS": "48", "STREET": "4020 LOST OASIS HOLLOW", "CITY": "AUSTIN", "STATE": "TX", "ZIP": "78739", "STFIP": "48", "CNTY": "48453", "NMCNTY": "Travis County", "LOCALE": "21", "LAT": 30.16443, "LON": -97.872317, "CBSA": "12420", "NMCBSA": "Austin-Round Rock, TX", "CBSATYPE": "1", "CSA": "N", "NMCSA": "N", "NECTA": "N", "NMNECTA": "N", "CD": "4825", "SLDL": "48047", "SLDU": "48025", "SCHOOLYEAR": "2018-2019" }, "geometry": { "type": "Point", "coordinates": [ -97.872324652999964, 30.164435191000052 ] } },
{ "type": "Feature", "properties": { "FID": 83327, "NCESSCH": "480894005646", "LEAID": "4808940", "NAME": "AUSTIN ST HOSPITAL", "OPSTFIPS": "48", "STREET": "1111 W 6TH ST", "CITY": "AUSTIN", "STATE": "TX", "ZIP": "78703", "STFIP": "48", "CNTY": "48453", "NMCNTY": "Travis County", "LOCALE": "11", "LAT": 30.272248, "LON": -97.756328, "CBSA": "12420", "NMCBSA": "Austin-Round Rock, TX", "CBSATYPE": "1", "CSA": "N", "NMCSA": "N", "NECTA": "N", "NMNECTA": "N", "CD": "4821", "SLDL": "48049", "SLDU": "48014", "SCHOOLYEAR": "2018-2019" }, "geometry": { "type": "Point", "coordinates": [ -97.756335629999967, 30.272253216000024 ] } },
{ "type": "Feature", "properties": { "FID": 83328, "NCESSCH": "480894006070", "LEAID": "4808940", "NAME": "PATTON EL", "OPSTFIPS": "48", "STREET": "6001 WESTCREEK DR", "CITY": "AUSTIN", "STATE": "TX", "ZIP": "78749", "STFIP": "48", "CNTY": "48453", "NMCNTY": "Travis County", "LOCALE": "11", "LAT": 30.23173, "LON": -97.845238, "CBSA": "12420", "NMCBSA": "Austin-Round Rock, TX", "CBSATYPE": "1", "CSA": "N", "NMCSA": "N", "NECTA": "N", "NMNECTA": "N", "CD": "4821", "SLDL": "48048", "SLDU": "48014", "SCHOOLYEAR": "2018-2019" }, "geometry": { "type": "Point", "coordinates": [ -97.845245649999981, 30.231735205000064 ] } },
{ "type": "Feature", "properties": { "FID": 83329, "NCESSCH": "480894006207", "LEAID": "4808940", "NAME": "KEALING M S", "OPSTFIPS": "48", "STREET": "1607 PENNSYLVANIA AVE", "CITY": "AUSTIN", "STATE": "TX", "ZIP": "78702", "STFIP": "48", "CNTY": "48453", "NMCNTY": "Travis County", "LOCALE": "11", "LAT": 30.27111, "LON": -97.721557, "CBSA": "12420", "NMCBSA": "Austin-Round Rock, TX", "CBSATYPE": "1", "CSA": "N", "NMCSA": "N", "NECTA": "N", "NMNECTA": "N", "CD": "4825", "SLDL": "48046", "SLDU": "48014", "SCHOOLYEAR": "2018-2019" }, "geometry": { "type": "Point", "coordinates": [ -97.72156462099997, 30.271115217000045 ] } },
{ "type": "Feature", "properties": { "FID": 83330, "NCESSCH": "480894006208", "LEAID": "4808940", "NAME": "COVINGTON MIDDLE", "OPSTFIPS": "48", "STREET": "3700 CONVICT HILL RD", "CITY": "AUSTIN", "STATE": "TX", "ZIP": "78749", "STFIP": "48", "CNTY": "48453", "NMCNTY": "Travis County", "LOCALE": "11", "LAT": 30.212846, "LON": -97.834284, "CBSA": "12420", "NMCBSA": "Austin-Round Rock, TX", "CBSATYPE": "1", "CSA": "N", "NMCSA": "N", "NECTA": "N", "NMNECTA": "N", "CD": "4825", "SLDL": "48048", "SLDU": "48014", "SCHOOLYEAR": "2018-2019" }, "geometry": { "type": "Point", "coordinates": [ -97.83429164599994, 30.212851201000035 ] } },
{ "type": "Feature", "properties": { "FID": 83331, "NCESSCH": "480894006209", "LEAID": "4808940", "NAME": "MENDEZ MIDDLE", "OPSTFIPS": "48", "STREET": "5106 VILLAGE SQ DR", "CITY": "AUSTIN", "STATE": "TX", "ZIP": "78744", "STFIP": "48", "CNTY": "48453", "NMCNTY": "Travis County", "LOCALE": "11", "LAT": 30.18868, "LON": -97.743057, "CBSA": "12420", "NMCBSA": "Austin-Round Rock, TX", "CBSATYPE": "1", "CSA": "N", "NMCSA": "N", "NECTA": "N", "NMNECTA": "N", "CD": "4835", "SLDL": "48051", "SLDU": "48021", "SCHOOLYEAR": "2018-2019" }, "geometry": { "type": "Point", "coordinates": [ -97.743064621999963, 30.188685200000066 ] } },
{ "type": "Feature", "properties": { "FID": 83332, "NCESSCH": "480894006210", "LEAID": "4808940", "NAME": "BOONE EL", "OPSTFIPS": "48", "STREET": "8101 CROFTWOOD DR", "CITY": "AUSTIN", "STATE": "TX", "ZIP": "78749", "STFIP": "48", "CNTY": "48453", "NMCNTY": "Travis County", "LOCALE": "11", "LAT": 30.203694, "LON": -97.839849, "CBSA": "12420", "NMCBSA": "Austin-Round Rock, TX", "CBSATYPE": "1", "CSA": "N", "NMCSA": "N", "NECTA": "N", "NMNECTA": "N", "CD": "4825", "SLDL": "48048", "SLDU": "48014", "SCHOOLYEAR": "2018-2019" }, "geometry": { "type": "Point", "coordinates": [ -97.839856646999976, 30.203699200000074 ] } },
{ "type": "Feature", "properties": { "FID": 83333, "NCESSCH": "480894006211", "LEAID": "4808940", "NAME": "PALM EL", "OPSTFIPS": "48", "STREET": "7601 DIXIE DR", "CITY": "AUSTIN", "STATE": "TX", "ZIP": "78744", "STFIP": "48", "CNTY": "48453", "NMCNTY": "Travis County", "LOCALE": "11", "LAT": 30.164853, "LON": -97.743424, "CBSA": "12420", "NMCBSA": "Austin-Round Rock, TX", "CBSATYPE": "1", "CSA": "N", "NMCSA": "N", "NECTA": "N", "NMNECTA": "N", "CD": "4835", "SLDL": "48051", "SLDU": "48021", "SCHOOLYEAR": "2018-2019" }, "geometry": { "type": "Point", "coordinates": [ -97.743431621999946, 30.164858195000079 ] } },
{ "type": "Feature", "properties": { "FID": 83334, "NCESSCH": "480894006212", "LEAID": "4808940", "NAME": "KOCUREK EL", "OPSTFIPS": "48", "STREET": "9800 CURLEW DR", "CITY": "AUSTIN", "STATE": "TX", "ZIP": "78748", "STFIP": "48", "CNTY": "48453", "NMCNTY": "Travis County", "LOCALE": "11", "LAT": 30.177985, "LON": -97.834894, "CBSA": "12420", "NMCBSA": "Austin-Round Rock, TX", "CBSATYPE": "1", "CSA": "N", "NMCSA": "N", "NECTA": "N", "NMNECTA": "N", "CD": "4821", "SLDL": "48048", "SLDU": "48014", "SCHOOLYEAR": "2018-2019" }, "geometry": { "type": "Point", "coordinates": [ -97.834901643999956, 30.177990195000064 ] } },
{ "type": "Feature", "properties": { "FID": 83335, "NCESSCH": "480894006213", "LEAID": "4808940", "NAME": "WIDEN EL", "OPSTFIPS": "48", "STREET": "5605 NUCKOLS CROSSING RD", "CITY": "AUSTIN", "STATE": "TX", "ZIP": "78744", "STFIP": "48", "CNTY": "48453", "NMCNTY": "Travis County", "LOCALE": "11", "LAT": 30.188759, "LON": -97.74047, "CBSA": "12420", "NMCBSA": "Austin-Round Rock, TX", "CBSATYPE": "1", "CSA": "N", "NMCSA": "N", "NECTA": "N", "NMNECTA": "N", "CD": "4835", "SLDL": "48051", "SLDU": "48021", "SCHOOLYEAR": "2018-2019" }, "geometry": { "type": "Point", "coordinates": [ -97.740477621999958, 30.188764200000037 ] } },
{ "type": "Feature", "properties": { "FID": 83336, "NCESSCH": "480894006356", "LEAID": "4808940", "NAME": "DAEP- EL", "OPSTFIPS": "48", "STREET": "906 W MILTON", "CITY": "AUSTIN", "STATE": "TX", "ZIP": "78704", "STFIP": "48", "CNTY": "48453", "NMCNTY": "Travis County", "LOCALE": "11", "LAT": 30.250532, "LON": -97.759832, "CBSA": "12420", "NMCBSA": "Austin-Round Rock, TX", "CBSATYPE": "1", "CSA": "N", "NMCSA": "N", "NECTA": "N", "NMNECTA": "N", "CD": "4821", "SLDL": "48051", "SLDU": "48014", "SCHOOLYEAR": "2018-2019" }, "geometry": { "type": "Point", "coordinates": [ -97.759839628999941, 30.25053721200004 ] } },
{ "type": "Feature", "properties": { "FID": 83337, "NCESSCH": "480894006508", "LEAID": "4808940", "NAME": "BOWIE H S", "OPSTFIPS": "48", "STREET": "4103 W SLAUGHTER LN", "CITY": "AUSTIN", "STATE": "TX", "ZIP": "78749", "STFIP": "48", "CNTY": "48453", "NMCNTY": "Travis County", "LOCALE": "11", "LAT": 30.187626, "LON": -97.858648, "CBSA": "12420", "NMCBSA": "Austin-Round Rock, TX", "CBSATYPE": "1", "CSA": "N", "NMCSA": "N", "NECTA": "N", "NMNECTA": "N", "CD": "4825", "SLDL": "48047", "SLDU": "48014", "SCHOOLYEAR": "2018-2019" }, "geometry": { "type": "Point", "coordinates": [ -97.85865565099999, 30.187631196000041 ] } },
{ "type": "Feature", "properties": { "FID": 83338, "NCESSCH": "480894006509", "LEAID": "4808940", "NAME": "GALINDO EL", "OPSTFIPS": "48", "STREET": "3800 S 2ND ST", "CITY": "AUSTIN", "STATE": "TX", "ZIP": "78704", "STFIP": "48", "CNTY": "48453", "NMCNTY": "Travis County", "LOCALE": "11", "LAT": 30.229454, "LON": -97.771748, "CBSA": "12420", "NMCBSA": "Austin-Round Rock, TX", "CBSATYPE": "1", "CSA": "N", "NMCSA": "N", "NECTA": "N", "NMNECTA": "N", "CD": "4821", "SLDL": "48049", "SLDU": "48014", "SCHOOLYEAR": "2018-2019" }, "geometry": { "type": "Point", "coordinates": [ -97.771755630999962, 30.229459207000048 ] } },
{ "type": "Feature", "properties": { "FID": 83339, "NCESSCH": "480894007137", "LEAID": "4808940", "NAME": "LEADERSHIP ACADEMY", "OPSTFIPS": "48", "STREET": "2515 S CONGRESS", "CITY": "AUSTIN", "STATE": "TX", "ZIP": "78704", "STFIP": "48", "CNTY": "48453", "NMCNTY": "Travis County", "LOCALE": "11", "LAT": 30.236115, "LON": -97.754447, "CBSA": "12420", "NMCBSA": "Austin-Round Rock, TX", "CBSATYPE": "1", "CSA": "N", "NMCSA": "N", "NECTA": "N", "NMNECTA": "N", "CD": "4821", "SLDL": "48051", "SLDU": "48014", "SCHOOLYEAR": "2018-2019" }, "geometry": { "type": "Point", "coordinates": [ -97.754454626999973, 30.236120209000035 ] } },
{ "type": "Feature", "properties": { "FID": 83340, "NCESSCH": "480894007741", "LEAID": "4808940", "NAME": "TRAVIS COUNTY J J A E P", "OPSTFIPS": "48", "STREET": "1111 W 6TH ST", "CITY": "AUSTIN", "STATE": "TX", "ZIP": "78703", "STFIP": "48", "CNTY": "48453", "NMCNTY": "Travis County", "LOCALE": "11", "LAT": 30.236591, "LON": -97.754741, "CBSA": "12420", "NMCBSA": "Austin-Round Rock, TX", "CBSATYPE": "1", "CSA": "N", "NMCSA": "N", "NECTA": "N", "NMNECTA": "N", "CD": "4821", "SLDL": "48051", "SLDU": "48014", "SCHOOLYEAR": "2018-2019" }, "geometry": { "type": "Point", "coordinates": [ -97.754748626999969, 30.236596209000027 ] } },
{ "type": "Feature", "properties": { "FID": 83341, "NCESSCH": "480894008060", "LEAID": "4808940", "NAME": "GARZA INDEPENDENCE H S", "OPSTFIPS": "48", "STREET": "1600 CHICON", "CITY": "AUSTIN", "STATE": "TX", "ZIP": "78702", "STFIP": "48", "CNTY": "48453", "NMCNTY": "Travis County", "LOCALE": "11", "LAT": 30.277524, "LON": -97.721187, "CBSA": "12420", "NMCBSA": "Austin-Round Rock, TX", "CBSATYPE": "1", "CSA": "N", "NMCSA": "N", "NECTA": "N", "NMNECTA": "N", "CD": "4825", "SLDL": "48046", "SLDU": "48014", "SCHOOLYEAR": "2018-2019" }, "geometry": { "type": "Point", "coordinates": [ -97.721194620999938, 30.27752921900003 ] } },
{ "type": "Feature", "properties": { "FID": 83342, "NCESSCH": "480894008061", "LEAID": "4808940", "NAME": "HART EL", "OPSTFIPS": "48", "STREET": "8301 FURNESS", "CITY": "AUSTIN", "STATE": "TX", "ZIP": "78753", "STFIP": "48", "CNTY": "48453", "NMCNTY": "Travis County", "LOCALE": "11", "LAT": 30.342492, "LON": -97.688729, "CBSA": "12420", "NMCBSA": "Austin-Round Rock, TX", "CBSATYPE": "1", "CSA": "N", "NMCSA": "N", "NECTA": "N", "NMNECTA": "N", "CD": "4835", "SLDL": "48046", "SLDU": "48014", "SCHOOLYEAR": "2018-2019" }, "geometry": { "type": "Point", "coordinates": [ -97.688736615999971, 30.342497232000028 ] } },
{ "type": "Feature", "properties": { "FID": 83343, "NCESSCH": "480894008062", "LEAID": "4808940", "NAME": "MILLS EL", "OPSTFIPS": "48", "STREET": "6201 DAVIS LN", "CITY": "AUSTIN", "STATE": "TX", "ZIP": "78749", "STFIP": "48", "CNTY": "48453", "NMCNTY": "Travis County", "LOCALE": "11", "LAT": 30.210955, "LON": -97.878234, "CBSA": "12420", "NMCBSA": "Austin-Round Rock, TX", "CBSATYPE": "1", "CSA": "N", "NMCSA": "N", "NECTA": "N", "NMNECTA": "N", "CD": "4825", "SLDL": "48048", "SLDU": "48025", "SCHOOLYEAR": "2018-2019" }, "geometry": { "type": "Point", "coordinates": [ -97.87824165699999, 30.210960199000056 ] } },
{ "type": "Feature", "properties": { "FID": 83344, "NCESSCH": "480894008389", "LEAID": "4808940", "NAME": "PHOENIX ACADEMY", "OPSTFIPS": "48", "STREET": "400 W LIVE OAK", "CITY": "AUSTIN", "STATE": "TX", "ZIP": "78704", "STFIP": "48", "CNTY": "48453", "NMCNTY": "Travis County", "LOCALE": "11", "LAT": 30.243843, "LON": -97.755855, "CBSA": "12420", "NMCBSA": "Austin-Round Rock, TX", "CBSATYPE": "1", "CSA": "N", "NMCSA": "N", "NECTA": "N", "NMNECTA": "N", "CD": "4821", "SLDL": "48051", "SLDU": "48014", "SCHOOLYEAR": "2018-2019" }, "geometry": { "type": "Point", "coordinates": [ -97.755862627999988, 30.243848211000056 ] } },
{ "type": "Feature", "properties": { "FID": 83345, "NCESSCH": "480894008390", "LEAID": "4808940", "NAME": "SMALL M S", "OPSTFIPS": "48", "STREET": "4801 MONTEREY OAKS BLVD", "CITY": "AUSTIN", "STATE": "TX", "ZIP": "78749", "STFIP": "48", "CNTY": "48453", "NMCNTY": "Travis County", "LOCALE": "11", "LAT": 30.233756, "LON": -97.841595, "CBSA": "12420", "NMCBSA": "Austin-Round Rock, TX", "CBSATYPE": "1", "CSA": "N", "NMCSA": "N", "NECTA": "N", "NMNECTA": "N", "CD": "4821", "SLDL": "48048", "SLDU": "48014", "SCHOOLYEAR": "2018-2019" }, "geometry": { "type": "Point", "coordinates": [ -97.841602648999981, 30.233761205000064 ] } },
{ "type": "Feature", "properties": { "FID": 83346, "NCESSCH": "480894008391", "LEAID": "4808940", "NAME": "CASEY EL", "OPSTFIPS": "48", "STREET": "9400 TEXAS OAKS DR", "CITY": "AUSTIN", "STATE": "TX", "ZIP": "78748", "STFIP": "48", "CNTY": "48453", "NMCNTY": "Travis County", "LOCALE": "11", "LAT": 30.176906, "LON": -97.814857, "CBSA": "12420", "NMCBSA": "Austin-Round Rock, TX", "CBSATYPE": "1", "CSA": "N", "NMCSA": "N", "NECTA": "N", "NMNECTA": "N", "CD": "4835", "SLDL": "48048", "SLDU": "48014", "SCHOOLYEAR": "2018-2019" }, "geometry": { "type": "Point", "coordinates": [ -97.814864639999939, 30.176911195000059 ] } },
{ "type": "Feature", "properties": { "FID": 83347, "NCESSCH": "480894008392", "LEAID": "4808940", "NAME": "RODRIGUEZ EL", "OPSTFIPS": "48", "STREET": "4400 FRANKLIN PARK DR", "CITY": "AUSTIN", "STATE": "TX", "ZIP": "78744", "STFIP": "48", "CNTY": "48453", "NMCNTY": "Travis County", "LOCALE": "11", "LAT": 30.200525, "LON": -97.747035, "CBSA": "12420", "NMCBSA": "Austin-Round Rock, TX", "CBSATYPE": "1", "CSA": "N", "NMCSA": "N", "NECTA": "N", "NMNECTA": "N", "CD": "4835", "SLDL": "48051", "SLDU": "48021", "SCHOOLYEAR": "2018-2019" }, "geometry": { "type": "Point", "coordinates": [ -97.74704262299997, 30.200530202000039 ] } },
{ "type": "Feature", "properties": { "FID": 83348, "NCESSCH": "480894008393", "LEAID": "4808940", "NAME": "BARANOFF EL", "OPSTFIPS": "48", "STREET": "12009 BUCKINGHAM GATE RD", "CITY": "AUSTIN", "STATE": "TX", "ZIP": "78748", "STFIP": "48", "CNTY": "48453", "NMCNTY": "Travis County", "LOCALE": "11", "LAT": 30.15406, "LON": -97.85202, "CBSA": "12420", "NMCBSA": "Austin-Round Rock, TX", "CBSATYPE": "1", "CSA": "N", "NMCSA": "N", "NECTA": "N", "NMNECTA": "N", "CD": "4821", "SLDL": "48047", "SLDU": "48025", "SCHOOLYEAR": "2018-2019" }, "geometry": { "type": "Point", "coordinates": [ -97.852027647999989, 30.15406519000004 ] } },
{ "type": "Feature", "properties": { "FID": 83349, "NCESSCH": "480894008937", "LEAID": "4808940", "NAME": "AKINS H S", "OPSTFIPS": "48", "STREET": "10701 S 1ST ST", "CITY": "AUSTIN", "STATE": "TX", "ZIP": "78748", "STFIP": "48", "CNTY": "48453", "NMCNTY": "Travis County", "LOCALE": "11", "LAT": 30.14988, "LON": -97.801206, "CBSA": "12420", "NMCBSA": "Austin-Round Rock, TX", "CBSATYPE": "1", "CSA": "N", "NMCSA": "N", "NECTA": "N", "NMNECTA": "N", "CD": "4821", "SLDL": "48048", "SLDU": "48025", "SCHOOLYEAR": "2018-2019" }, "geometry": { "type": "Point", "coordinates": [ -97.801213634999954, 30.149885190000077 ] } },
{ "type": "Feature", "properties": { "FID": 83350, "NCESSCH": "480894008938", "LEAID": "4808940", "NAME": "PAREDES M S", "OPSTFIPS": "48", "STREET": "10100 S MARY MOORE SEARIGHT DR", "CITY": "AUSTIN", "STATE": "TX", "ZIP": "78748", "STFIP": "48", "CNTY": "48453", "NMCNTY": "Travis County", "LOCALE": "11", "LAT": 30.167471, "LON": -97.811345, "CBSA": "12420", "NMCBSA": "Austin-Round Rock, TX", "CBSATYPE": "1", "CSA": "N", "NMCSA": "N", "NECTA": "N", "NMNECTA": "N", "CD": "4835", "SLDL": "48048", "SLDU": "48025", "SCHOOLYEAR": "2018-2019" }, "geometry": { "type": "Point", "coordinates": [ -97.811352638999949, 30.167476193000027 ] } },
{ "type": "Feature", "properties": { "FID": 83351, "NCESSCH": "480894008939", "LEAID": "4808940", "NAME": "MCBEE EL", "OPSTFIPS": "48", "STREET": "1101 W BRAKER LN", "CITY": "AUSTIN", "STATE": "TX", "ZIP": "78758", "STFIP": "48", "CNTY": "48453", "NMCNTY": "Travis County", "LOCALE": "11", "LAT": 30.383225, "LON": -97.691057, "CBSA": "12420", "NMCBSA": "Austin-Round Rock, TX", "CBSATYPE": "1", "CSA": "N", "NMCSA": "N", "NECTA": "N", "NMNECTA": "N", "CD": "4810", "SLDL": "48049", "SLDU": "48014", "SCHOOLYEAR": "2018-2019" }, "geometry": { "type": "Point", "coordinates": [ -97.691064618999974, 30.383230240000046 ] } },
{ "type": "Feature", "properties": { "FID": 83352, "NCESSCH": "480894008940", "LEAID": "4808940", "NAME": "COWAN EL", "OPSTFIPS": "48", "STREET": "2817 KENTISH DR", "CITY": "AUSTIN", "STATE": "TX", "ZIP": "78748", "STFIP": "48", "CNTY": "48453", "NMCNTY": "Travis County", "LOCALE": "11", "LAT": 30.18874, "LON": -97.833538, "CBSA": "12420", "NMCBSA": "Austin-Round Rock, TX", "CBSATYPE": "1", "CSA": "N", "NMCSA": "N", "NECTA": "N", "NMNECTA": "N", "CD": "4821", "SLDL": "48048", "SLDU": "48014", "SCHOOLYEAR": "2018-2019" }, "geometry": { "type": "Point", "coordinates": [ -97.833545644999958, 30.18874519700006 ] } },
{ "type": "Feature", "properties": { "FID": 83353, "NCESSCH": "480894009076", "LEAID": "4808940", "NAME": "ALTERNATIVE LEARNING CENTER", "OPSTFIPS": "48", "STREET": "900 NEAL ST", "CITY": "AUSTIN", "STATE": "TX", "ZIP": "78702", "STFIP": "48", "CNTY": "48453", "NMCNTY": "Travis County", "LOCALE": "11", "LAT": 30.256059, "LON": -97.697161, "CBSA": "12420", "NMCBSA": "Austin-Round Rock, TX", "CBSATYPE": "1", "CSA": "N", "NMCSA": "N", "NECTA": "N", "NMNECTA": "N", "CD": "4835", "SLDL": "48051", "SLDU": "48014", "SCHOOLYEAR": "2018-2019" }, "geometry": { "type": "Point", "coordinates": [ -97.697168613999963, 30.256064215000038 ] } },
{ "type": "Feature", "properties": { "FID": 83354, "NCESSCH": "480894009077", "LEAID": "4808940", "NAME": "TRAVIS COUNTY JUVENILE DETENTION CENTER", "OPSTFIPS": "48", "STREET": "2515 S CONGRESS AVE", "CITY": "AUSTIN", "STATE": "TX", "ZIP": "78704", "STFIP": "48", "CNTY": "48453", "NMCNTY": "Travis County", "LOCALE": "11", "LAT": 30.236591, "LON": -97.754741, "CBSA": "12420", "NMCBSA": "Austin-Round Rock, TX", "CBSATYPE": "1", "CSA": "N", "NMCSA": "N", "NECTA": "N", "NMNECTA": "N", "CD": "4821", "SLDL": "48051", "SLDU": "48014", "SCHOOLYEAR": "2018-2019" }, "geometry": { "type": "Point", "coordinates": [ -97.754748626999969, 30.236596209000027 ] } },
{ "type": "Feature", "properties": { "FID": 83355, "NCESSCH": "480894009078", "LEAID": "4808940", "NAME": "PICKLE EL", "OPSTFIPS": "48", "STREET": "1101 WHEATLEY", "CITY": "AUSTIN", "STATE": "TX", "ZIP": "78752", "STFIP": "48", "CNTY": "48453", "NMCNTY": "Travis County", "LOCALE": "11", "LAT": 30.333049, "LON": -97.693792, "CBSA": "12420", "NMCBSA": "Austin-Round Rock, TX", "CBSATYPE": "1", "CSA": "N", "NMCSA": "N", "NECTA": "N", "NMNECTA": "N", "CD": "4810", "SLDL": "48046", "SLDU": "48014", "SCHOOLYEAR": "2018-2019" }, "geometry": { "type": "Point", "coordinates": [ -97.693799616999968, 30.333054231000062 ] } },
{ "type": "Feature", "properties": { "FID": 83356, "NCESSCH": "480894011057", "LEAID": "4808940", "NAME": "INTERNATIONAL H S", "OPSTFIPS": "48", "STREET": "1012 ARTHUR STILES", "CITY": "AUSTIN", "STATE": "TX", "ZIP": "78721", "STFIP": "48", "CNTY": "48453", "NMCNTY": "Travis County", "LOCALE": "11", "LAT": 30.257813, "LON": -97.681311, "CBSA": "12420", "NMCBSA": "Austin-Round Rock, TX", "CBSATYPE": "1", "CSA": "N", "NMCSA": "N", "NECTA": "N", "NMNECTA": "N", "CD": "4835", "SLDL": "48051", "SLDU": "48014", "SCHOOLYEAR": "2018-2019" }, "geometry": { "type": "Point", "coordinates": [ -97.681318610999938, 30.257818215000043 ] } },
{ "type": "Feature", "properties": { "FID": 83357, "NCESSCH": "480894011059", "LEAID": "4808940", "NAME": "GORZYCKI MIDDLE", "OPSTFIPS": "48", "STREET": "7412 SLAUGHTER LN", "CITY": "AUSTIN", "STATE": "TX", "ZIP": "78749", "STFIP": "48", "CNTY": "48453", "NMCNTY": "Travis County", "LOCALE": "11", "LAT": 30.2145, "LON": -97.891875, "CBSA": "12420", "NMCBSA": "Austin-Round Rock, TX", "CBSATYPE": "1", "CSA": "N", "NMCSA": "N", "NECTA": "N", "NMNECTA": "N", "CD": "4825", "SLDL": "48047", "SLDU": "48025", "SCHOOLYEAR": "2018-2019" }, "geometry": { "type": "Point", "coordinates": [ -97.891882659999965, 30.21450519900003 ] } },
{ "type": "Feature", "properties": { "FID": 83358, "NCESSCH": "480894011060", "LEAID": "4808940", "NAME": "SOUTHEAST MIDDLE", "OPSTFIPS": "48", "STREET": "1111 W 6TH ST", "CITY": "AUSTIN", "STATE": "TX", "ZIP": "78703", "STFIP": "48", "CNTY": "48453", "NMCNTY": "Travis County", "LOCALE": "11", "LAT": 30.272248, "LON": -97.756328, "CBSA": "12420", "NMCBSA": "Austin-Round Rock, TX", "CBSATYPE": "1", "CSA": "N", "NMCSA": "N", "NECTA": "N", "NMNECTA": "N", "CD": "4821", "SLDL": "48049", "SLDU": "48014", "SCHOOLYEAR": "2018-2019" }, "geometry": { "type": "Point", "coordinates": [ -97.756335629999967, 30.272253216000024 ] } },
{ "type": "Feature", "properties": { "FID": 83359, "NCESSCH": "480894011061", "LEAID": "4808940", "NAME": "CLAYTON EL", "OPSTFIPS": "48", "STREET": "7525 LA CROSSE AVE", "CITY": "AUSTIN", "STATE": "TX", "ZIP": "78739", "STFIP": "48", "CNTY": "48453", "NMCNTY": "Travis County", "LOCALE": "11", "LAT": 30.195105, "LON": -97.906497, "CBSA": "12420", "NMCBSA": "Austin-Round Rock, TX", "CBSATYPE": "1", "CSA": "N", "NMCSA": "N", "NECTA": "N", "NMNECTA": "N", "CD": "4825", "SLDL": "48047", "SLDU": "48025", "SCHOOLYEAR": "2018-2019" }, "geometry": { "type": "Point", "coordinates": [ -97.906504663999954, 30.195110195000041 ] } },
{ "type": "Feature", "properties": { "FID": 83360, "NCESSCH": "480894011062", "LEAID": "4808940", "NAME": "BLAZIER EL", "OPSTFIPS": "48", "STREET": "8601 NUCKOLS CROSSING RD", "CITY": "AUSTIN", "STATE": "TX", "ZIP": "78744", "STFIP": "48", "CNTY": "48453", "NMCNTY": "Travis County", "LOCALE": "41", "LAT": 30.156173, "LON": -97.751461, "CBSA": "12420", "NMCBSA": "Austin-Round Rock, TX", "CBSATYPE": "1", "CSA": "N", "NMCSA": "N", "NECTA": "N", "NMNECTA": "N", "CD": "4835", "SLDL": "48051", "SLDU": "48021", "SCHOOLYEAR": "2018-2019" }, "geometry": { "type": "Point", "coordinates": [ -97.751468621999948, 30.156178193000073 ] } },
{ "type": "Feature", "properties": { "FID": 83361, "NCESSCH": "480894011063", "LEAID": "4808940", "NAME": "GUERRERO THOMPSON", "OPSTFIPS": "48", "STREET": "102 E RUNDBERG", "CITY": "AUSTIN", "STATE": "TX", "ZIP": "78753", "STFIP": "48", "CNTY": "48453", "NMCNTY": "Travis County", "LOCALE": "11", "LAT": 30.363864, "LON": -97.691655, "CBSA": "12420", "NMCBSA": "Austin-Round Rock, TX", "CBSATYPE": "1", "CSA": "N", "NMCSA": "N", "NECTA": "N", "NMNECTA": "N", "CD": "4835", "SLDL": "48050", "SLDU": "48014", "SCHOOLYEAR": "2018-2019" }, "geometry": { "type": "Point", "coordinates": [ -97.691662617999953, 30.363869236000028 ] } },
{ "type": "Feature", "properties": { "FID": 83362, "NCESSCH": "480894011064", "LEAID": "4808940", "NAME": "BALDWIN EL", "OPSTFIPS": "48", "STREET": "12200 MERIDIAN PARK BLVD", "CITY": "AUSTIN", "STATE": "TX", "ZIP": "78739", "STFIP": "48", "CNTY": "48453", "NMCNTY": "Travis County", "LOCALE": "11", "LAT": 30.184894, "LON": -97.923392, "CBSA": "12420", "NMCBSA": "Austin-Round Rock, TX", "CBSATYPE": "1", "CSA": "N", "NMCSA": "N", "NECTA": "N", "NMNECTA": "N", "CD": "4825", "SLDL": "48047", "SLDU": "48025", "SCHOOLYEAR": "2018-2019" }, "geometry": { "type": "Point", "coordinates": [ -97.923399666999956, 30.184899193000035 ] } },
{ "type": "Feature", "properties": { "FID": 83363, "NCESSCH": "480894011065", "LEAID": "4808940", "NAME": "PADRON EL", "OPSTFIPS": "48", "STREET": "2011 W RUNDBERG LN", "CITY": "AUSTIN", "STATE": "TX", "ZIP": "78758", "STFIP": "48", "CNTY": "48453", "NMCNTY": "Travis County", "LOCALE": "11", "LAT": 30.37379, "LON": -97.720215, "CBSA": "12420", "NMCBSA": "Austin-Round Rock, TX", "CBSATYPE": "1", "CSA": "N", "NMCSA": "N", "NECTA": "N", "NMNECTA": "N", "CD": "4810", "SLDL": "48049", "SLDU": "48014", "SCHOOLYEAR": "2018-2019" }, "geometry": { "type": "Point", "coordinates": [ -97.720222625999952, 30.373795237000024 ] } },
{ "type": "Feature", "properties": { "FID": 83364, "NCESSCH": "480894011066", "LEAID": "4808940", "NAME": "OVERTON EL", "OPSTFIPS": "48", "STREET": "7201 COLONY LOOP DR", "CITY": "AUSTIN", "STATE": "TX", "ZIP": "78724", "STFIP": "48", "CNTY": "48453", "NMCNTY": "Travis County", "LOCALE": "11", "LAT": 30.300327, "LON": -97.636023, "CBSA": "12420", "NMCBSA": "Austin-Round Rock, TX", "CBSATYPE": "1", "CSA": "N", "NMCSA": "N", "NECTA": "N", "NMNECTA": "N", "CD": "4835", "SLDL": "48046", "SLDU": "48014", "SCHOOLYEAR": "2018-2019" }, "geometry": { "type": "Point", "coordinates": [ -97.636030600999959, 30.300332225000034 ] } },
{ "type": "Feature", "properties": { "FID": 83365, "NCESSCH": "480894011067", "LEAID": "4808940", "NAME": "PEREZ EL", "OPSTFIPS": "48", "STREET": "7500 S PLEASANT VLY RD", "CITY": "AUSTIN", "STATE": "TX", "ZIP": "78744", "STFIP": "48", "CNTY": "48453", "NMCNTY": "Travis County", "LOCALE": "11", "LAT": 30.170422, "LON": -97.756564, "CBSA": "12420", "NMCBSA": "Austin-Round Rock, TX", "CBSATYPE": "1", "CSA": "N", "NMCSA": "N", "NECTA": "N", "NMNECTA": "N", "CD": "4835", "SLDL": "48051", "SLDU": "48021", "SCHOOLYEAR": "2018-2019" }, "geometry": { "type": "Point", "coordinates": [ -97.75657162499999, 30.170427196000048 ] } },
{ "type": "Feature", "properties": { "FID": 83366, "NCESSCH": "480894011354", "LEAID": "4808940", "NAME": "RICHARDS SCH FOR YOUNG WOMEN LEADERS", "OPSTFIPS": "48", "STREET": "2206 PRATHER LN", "CITY": "AUSTIN", "STATE": "TX", "ZIP": "78704", "STFIP": "48", "CNTY": "48453", "NMCNTY": "Travis County", "LOCALE": "11", "LAT": 30.235699, "LON": -97.788411, "CBSA": "12420", "NMCBSA": "Austin-Round Rock, TX", "CBSATYPE": "1", "CSA": "N", "NMCSA": "N", "NECTA": "N", "NMNECTA": "N", "CD": "4821", "SLDL": "48049", "SLDU": "48014", "SCHOOLYEAR": "2018-2019" }, "geometry": { "type": "Point", "coordinates": [ -97.78841863599996, 30.235704207000026 ] } },
{ "type": "Feature", "properties": { "FID": 83367, "NCESSCH": "480894011355", "LEAID": "4808940", "NAME": "READ PRE-K CENTER", "OPSTFIPS": "48", "STREET": "2608 RICHCREEK RD", "CITY": "AUSTIN", "STATE": "TX", "ZIP": "78757", "STFIP": "48", "CNTY": "48453", "NMCNTY": "Travis County", "LOCALE": "11", "LAT": 30.352352, "LON": -97.737084, "CBSA": "12420", "NMCBSA": "Austin-Round Rock, TX", "CBSATYPE": "1", "CSA": "N", "NMCSA": "N", "NECTA": "N", "NMNECTA": "N", "CD": "4810", "SLDL": "48049", "SLDU": "48014", "SCHOOLYEAR": "2018-2019" }, "geometry": { "type": "Point", "coordinates": [ -97.737091628999963, 30.352357233000077 ] } },
{ "type": "Feature", "properties": { "FID": 83368, "NCESSCH": "480894011844", "LEAID": "4808940", "NAME": "LBJ HIGH SCHOOL", "OPSTFIPS": "48", "STREET": "7309 LAZY CREEK DR", "CITY": "AUSTIN", "STATE": "TX", "ZIP": "78724", "STFIP": "48", "CNTY": "48453", "NMCNTY": "Travis County", "LOCALE": "11", "LAT": 30.313221, "LON": -97.656643, "CBSA": "12420", "NMCBSA": "Austin-Round Rock, TX", "CBSATYPE": "1", "CSA": "N", "NMCSA": "N", "NECTA": "N", "NMNECTA": "N", "CD": "4835", "SLDL": "48046", "SLDU": "48014", "SCHOOLYEAR": "2018-2019" }, "geometry": { "type": "Point", "coordinates": [ -97.656650605999971, 30.31322622700003 ] } },
{ "type": "Feature", "properties": { "FID": 83369, "NCESSCH": "480894011930", "LEAID": "4808940", "NAME": "LASA H S", "OPSTFIPS": "48", "STREET": "7309 LAZY CREEK DR", "CITY": "AUSTIN", "STATE": "TX", "ZIP": "78724", "STFIP": "48", "CNTY": "48453", "NMCNTY": "Travis County", "LOCALE": "11", "LAT": 30.313221, "LON": -97.656643, "CBSA": "12420", "NMCBSA": "Austin-Round Rock, TX", "CBSATYPE": "1", "CSA": "N", "NMCSA": "N", "NECTA": "N", "NMNECTA": "N", "CD": "4835", "SLDL": "48046", "SLDU": "48014", "SCHOOLYEAR": "2018-2019" }, "geometry": { "type": "Point", "coordinates": [ -97.656650605999971, 30.31322622700003 ] } },
{ "type": "Feature", "properties": { "FID": 83370, "NCESSCH": "480894012013", "LEAID": "4808940", "NAME": "EASTSIDE MEMORIAL AT THE JOHNSTON CAMPUS", "OPSTFIPS": "48", "STREET": "1012 ARTHUR STILES", "CITY": "AUSTIN", "STATE": "TX", "ZIP": "78721", "STFIP": "48", "CNTY": "48453", "NMCNTY": "Travis County", "LOCALE": "11", "LAT": 30.257813, "LON": -97.681311, "CBSA": "12420", "NMCBSA": "Austin-Round Rock, TX", "CBSATYPE": "1", "CSA": "N", "NMCSA": "N", "NECTA": "N", "NMNECTA": "N", "CD": "4835", "SLDL": "48051", "SLDU": "48014", "SCHOOLYEAR": "2018-2019" }, "geometry": { "type": "Point", "coordinates": [ -97.681318610999938, 30.257818215000043 ] } },
{ "type": "Feature", "properties": { "FID": 83371, "NCESSCH": "480894012058", "LEAID": "4808940", "NAME": "UPHAUS EARLY CHILDHOOD CENTER", "OPSTFIPS": "48", "STREET": "5200 FREIDRICH LN", "CITY": "AUSTIN", "STATE": "TX", "ZIP": "78744", "STFIP": "48", "CNTY": "48453", "NMCNTY": "Travis County", "LOCALE": "11", "LAT": 30.202148, "LON": -97.75555, "CBSA": "12420", "NMCBSA": "Austin-Round Rock, TX", "CBSATYPE": "1", "CSA": "N", "NMCSA": "N", "NECTA": "N", "NMNECTA": "N", "CD": "4835", "SLDL": "48051", "SLDU": "48021", "SCHOOLYEAR": "2018-2019" }, "geometry": { "type": "Point", "coordinates": [ -97.755557625999984, 30.202153202000034 ] } },
{ "type": "Feature", "properties": { "FID": 83372, "NCESSCH": "480894012204", "LEAID": "4808940", "NAME": "TRAVIS COUNTY DAY SCHOOL", "OPSTFIPS": "48", "STREET": "8011 CAMERON RD STE B", "CITY": "AUSTIN", "STATE": "TX", "ZIP": "78754", "STFIP": "48", "CNTY": "48453", "NMCNTY": "Travis County", "LOCALE": "11", "LAT": 30.335793, "LON": -97.683416, "CBSA": "12420", "NMCBSA": "Austin-Round Rock, TX", "CBSATYPE": "1", "CSA": "N", "NMCSA": "N", "NECTA": "N", "NMNECTA": "N", "CD": "4835", "SLDL": "48046", "SLDU": "48014", "SCHOOLYEAR": "2018-2019" }, "geometry": { "type": "Point", "coordinates": [ -97.683423614999981, 30.335798231000069 ] } },
{ "type": "Feature", "properties": { "FID": 83373, "NCESSCH": "480894012824", "LEAID": "4808940", "NAME": "GRADUATION PREP ACADEMY LANIER", "OPSTFIPS": "48", "STREET": "1201 PAYTON GIN RD", "CITY": "AUSTIN", "STATE": "TX", "ZIP": "78758", "STFIP": "48", "CNTY": "48453", "NMCNTY": "Travis County", "LOCALE": "11", "LAT": 30.360598, "LON": -97.708042, "CBSA": "12420", "NMCBSA": "Austin-Round Rock, TX", "CBSATYPE": "1", "CSA": "N", "NMCSA": "N", "NECTA": "N", "NMNECTA": "N", "CD": "4810", "SLDL": "48046", "SLDU": "48014", "SCHOOLYEAR": "2018-2019" }, "geometry": { "type": "Point", "coordinates": [ -97.708049621999976, 30.360603235000042 ] } },
{ "type": "Feature", "properties": { "FID": 83374, "NCESSCH": "480894012842", "LEAID": "4808940", "NAME": "WEBB PRI CENTER", "OPSTFIPS": "48", "STREET": "601 E ST JOHNS AVE", "CITY": "AUSTIN", "STATE": "TX", "ZIP": "78752", "STFIP": "48", "CNTY": "48453", "NMCNTY": "Travis County", "LOCALE": "11", "LAT": 30.33331, "LON": -97.706987, "CBSA": "12420", "NMCBSA": "Austin-Round Rock, TX", "CBSATYPE": "1", "CSA": "N", "NMCSA": "N", "NECTA": "N", "NMNECTA": "N", "CD": "4810", "SLDL": "48046", "SLDU": "48014", "SCHOOLYEAR": "2018-2019" }, "geometry": { "type": "Point", "coordinates": [ -97.706994619999989, 30.333315230000039 ] } },
{ "type": "Feature", "properties": { "FID": 83375, "NCESSCH": "480894012846", "LEAID": "4808940", "NAME": "DOBIE PK CENTER", "OPSTFIPS": "48", "STREET": "1200 RUNDBERG LN", "CITY": "AUSTIN", "STATE": "TX", "ZIP": "78753", "STFIP": "48", "CNTY": "48453", "NMCNTY": "Travis County", "LOCALE": "11", "LAT": 30.355604, "LON": -97.67945, "CBSA": "12420", "NMCBSA": "Austin-Round Rock, TX", "CBSATYPE": "1", "CSA": "N", "NMCSA": "N", "NECTA": "N", "NMNECTA": "N", "CD": "4810", "SLDL": "48050", "SLDU": "48014", "SCHOOLYEAR": "2018-2019" }, "geometry": { "type": "Point", "coordinates": [ -97.679457613999944, 30.355609235000031 ] } },
{ "type": "Feature", "properties": { "FID": 83376, "NCESSCH": "480894012864", "LEAID": "4808940", "NAME": "GRADUATION PREP ACADEMY TRAVIS", "OPSTFIPS": "48", "STREET": "1211 E OLTORF", "CITY": "AUSTIN", "STATE": "TX", "ZIP": "78704", "STFIP": "48", "CNTY": "48453", "NMCNTY": "Travis County", "LOCALE": "11", "LAT": 30.233019, "LON": -97.744162, "CBSA": "12420", "NMCBSA": "Austin-Round Rock, TX", "CBSATYPE": "1", "CSA": "N", "NMCSA": "N", "NECTA": "N", "NMNECTA": "N", "CD": "4821", "SLDL": "48051", "SLDU": "48014", "SCHOOLYEAR": "2018-2019" }, "geometry": { "type": "Point", "coordinates": [ -97.744169624999984, 30.233024209000064 ] } },
{ "type": "Feature", "properties": { "FID": 83377, "NCESSCH": "480894013004", "LEAID": "4808940", "NAME": "DELL CHILDREN'S MEDICAL CENTER", "OPSTFIPS": "48", "STREET": "4900 MUELLER BLVD", "CITY": "AUSTIN", "STATE": "TX", "ZIP": "78723", "STFIP": "48", "CNTY": "48453", "NMCNTY": "Travis County", "LOCALE": "11", "LAT": 30.303123, "LON": -97.707094, "CBSA": "12420", "NMCBSA": "Austin-Round Rock, TX", "CBSATYPE": "1", "CSA": "N", "NMCSA": "N", "NECTA": "N", "NMNECTA": "N", "CD": "4825", "SLDL": "48046", "SLDU": "48014", "SCHOOLYEAR": "2018-2019" }, "geometry": { "type": "Point", "coordinates": [ -97.707101617999967, 30.303128224000034 ] } },
{ "type": "Feature", "properties": { "FID": 83378, "NCESSCH": "480894013132", "LEAID": "4808940", "NAME": "SADLER MEANS YWLA", "OPSTFIPS": "48", "STREET": "6401 N HAMPTON DR", "CITY": "AUSTIN", "STATE": "TX", "ZIP": "78723", "STFIP": "48", "CNTY": "48453", "NMCNTY": "Travis County", "LOCALE": "11", "LAT": 30.313648, "LON": -97.680439, "CBSA": "12420", "NMCBSA": "Austin-Round Rock, TX", "CBSATYPE": "1", "CSA": "N", "NMCSA": "N", "NECTA": "N", "NMNECTA": "N", "CD": "4825", "SLDL": "48046", "SLDU": "48014", "SCHOOLYEAR": "2018-2019" }, "geometry": { "type": "Point", "coordinates": [ -97.680446611999969, 30.313653227000032 ] } },
{ "type": "Feature", "properties": { "FID": 83379, "NCESSCH": "480894013169", "LEAID": "4808940", "NAME": "GARCIA YMLA", "OPSTFIPS": "48", "STREET": "7414 JOHNNY MORRIS RD", "CITY": "AUSTIN", "STATE": "TX", "ZIP": "78724", "STFIP": "48", "CNTY": "48453", "NMCNTY": "Travis County", "LOCALE": "41", "LAT": 30.31125, "LON": -97.642635, "CBSA": "12420", "NMCBSA": "Austin-Round Rock, TX", "CBSATYPE": "1", "CSA": "N", "NMCSA": "N", "NECTA": "N", "NMNECTA": "N", "CD": "4835", "SLDL": "48046", "SLDU": "48014", "SCHOOLYEAR": "2018-2019" }, "geometry": { "type": "Point", "coordinates": [ -97.642642602999956, 30.311255227000061 ] } },
{ "type": "Feature", "properties": { "FID": 83380, "NCESSCH": "480894013344", "LEAID": "4808940", "NAME": "AUSTIN ISD CHILD DEVELOPMENT CENTER", "OPSTFIPS": "48", "STREET": "1111 W 6TH ST", "CITY": "AUSTIN", "STATE": "TX", "ZIP": "78703", "STFIP": "48", "CNTY": "48453", "NMCNTY": "Travis County", "LOCALE": "11", "LAT": 30.272248, "LON": -97.756328, "CBSA": "12420", "NMCBSA": "Austin-Round Rock, TX", "CBSATYPE": "1", "CSA": "N", "NMCSA": "N", "NECTA": "N", "NMNECTA": "N", "CD": "4821", "SLDL": "48049", "SLDU": "48014", "SCHOOLYEAR": "2018-2019" }, "geometry": { "type": "Point", "coordinates": [ -97.756335629999967, 30.272253216000024 ] } },
{ "type": "Feature", "properties": { "FID": 83381, "NCESSCH": "480894013846", "LEAID": "4808940", "NAME": "MAINSPRING SCHOOLS", "OPSTFIPS": "48", "STREET": "1100 W LIVE OAK ST", "CITY": "AUSTIN", "STATE": "TX", "ZIP": "78704", "STFIP": "48", "CNTY": "48453", "NMCNTY": "Travis County", "LOCALE": "11", "LAT": 30.24709, "LON": -97.764861, "CBSA": "12420", "NMCBSA": "Austin-Round Rock, TX", "CBSATYPE": "1", "CSA": "N", "NMCSA": "N", "NECTA": "N", "NMNECTA": "N", "CD": "4821", "SLDL": "48051", "SLDU": "48014", "SCHOOLYEAR": "2018-2019" }, "geometry": { "type": "Point", "coordinates": [ -97.764868629999967, 30.247095210000055 ] } },
{ "type": "Feature", "properties": { "FID": 83382, "NCESSCH": "480894022775", "LEAID": "4808940", "NAME": "DAVIS EL", "OPSTFIPS": "48", "STREET": "5214 DUVAL RD", "CITY": "AUSTIN", "STATE": "TX", "ZIP": "78727", "STFIP": "48", "CNTY": "48453", "NMCNTY": "Travis County", "LOCALE": "11", "LAT": 30.4187, "LON": -97.741532, "CBSA": "12420", "NMCBSA": "Austin-Round Rock, TX", "CBSATYPE": "1", "CSA": "N", "NMCSA": "N", "NECTA": "N", "NMNECTA": "N", "CD": "4817", "SLDL": "48050", "SLDU": "48014", "SCHOOLYEAR": "2018-2019" }, "geometry": { "type": "Point", "coordinates": [ -97.741539632999945, 30.418705246000059 ] } },
{ "type": "Feature", "properties": { "FID": 85010, "NCESSCH": "481662001427", "LEAID": "4816620", "NAME": "SMITH EL", "OPSTFIPS": "48", "STREET": "4209 SMITH SCHOOL RD", "CITY": "AUSTIN", "STATE": "TX", "ZIP": "78744", "STFIP": "48", "CNTY": "48453", "NMCNTY": "Travis County", "LOCALE": "41", "LAT": 30.195916, "LON": -97.713296, "CBSA": "12420", "NMCBSA": "Austin-Round Rock, TX", "CBSATYPE": "1", "CSA": "N", "NMCSA": "N", "NECTA": "N", "NMNECTA": "N", "CD": "4835", "SLDL": "48051", "SLDU": "48021", "SCHOOLYEAR": "2018-2019" }, "geometry": { "type": "Point", "coordinates": [ -97.713303614999973, 30.195921202000079 ] } },
{ "type": "Feature", "properties": { "FID": 85011, "NCESSCH": "481662005695", "LEAID": "4816620", "NAME": "HILLCREST EL", "OPSTFIPS": "48", "STREET": "6910 E WILLIAM CANNON DR", "CITY": "AUSTIN", "STATE": "TX", "ZIP": "78744", "STFIP": "48", "CNTY": "48453", "NMCNTY": "Travis County", "LOCALE": "41", "LAT": 30.165654, "LON": -97.729117, "CBSA": "12420", "NMCBSA": "Austin-Round Rock, TX", "CBSATYPE": "1", "CSA": "N", "NMCSA": "N", "NECTA": "N", "NMNECTA": "N", "CD": "4835", "SLDL": "48051", "SLDU": "48021", "SCHOOLYEAR": "2018-2019" }, "geometry": { "type": "Point", "coordinates": [ -97.729124617999958, 30.165659196000036 ] } },
{ "type": "Feature", "properties": { "FID": 85012, "NCESSCH": "481662006091", "LEAID": "4816620", "NAME": "BATY EL", "OPSTFIPS": "48", "STREET": "2101 FARO DR", "CITY": "AUSTIN", "STATE": "TX", "ZIP": "78741", "STFIP": "48", "CNTY": "48453", "NMCNTY": "Travis County", "LOCALE": "11", "LAT": 30.227016, "LON": -97.713072, "CBSA": "12420", "NMCBSA": "Austin-Round Rock, TX", "CBSATYPE": "1", "CSA": "N", "NMCSA": "N", "NECTA": "N", "NMNECTA": "N", "CD": "4821", "SLDL": "48051", "SLDU": "48021", "SCHOOLYEAR": "2018-2019" }, "geometry": { "type": "Point", "coordinates": [ -97.713079616999948, 30.227021209000043 ] } },
{ "type": "Feature", "properties": { "FID": 85013, "NCESSCH": "481662006534", "LEAID": "4816620", "NAME": "HORNSBY-DUNLAP EL", "OPSTFIPS": "48", "STREET": "13901 F M RD 969", "CITY": "AUSTIN", "STATE": "TX", "ZIP": "78724", "STFIP": "48", "CNTY": "48453", "NMCNTY": "Travis County", "LOCALE": "21", "LAT": 30.247887, "LON": -97.587487, "CBSA": "12420", "NMCBSA": "Austin-Round Rock, TX", "CBSATYPE": "1", "CSA": "N", "NMCSA": "N", "NECTA": "N", "NMNECTA": "N", "CD": "4835", "SLDL": "48051", "SLDU": "48014", "SCHOOLYEAR": "2018-2019" }, "geometry": { "type": "Point", "coordinates": [ -97.587494586999981, 30.247892217000071 ] } },
{ "type": "Feature", "properties": { "FID": 85014, "NCESSCH": "481662007743", "LEAID": "4816620", "NAME": "TRAVIS CO J J A E P", "OPSTFIPS": "48", "STREET": "3207 W SLAUGHTER LN", "CITY": "AUSTIN", "STATE": "TX", "ZIP": "78748", "STFIP": "48", "CNTY": "48453", "NMCNTY": "Travis County", "LOCALE": "11", "LAT": 30.236591, "LON": -97.754741, "CBSA": "12420", "NMCBSA": "Austin-Round Rock, TX", "CBSATYPE": "1", "CSA": "N", "NMCSA": "N", "NECTA": "N", "NMNECTA": "N", "CD": "4821", "SLDL": "48051", "SLDU": "48014", "SCHOOLYEAR": "2018-2019" }, "geometry": { "type": "Point", "coordinates": [ -97.754748626999969, 30.236596209000027 ] } },
{ "type": "Feature", "properties": { "FID": 85016, "NCESSCH": "481662009527", "LEAID": "4816620", "NAME": "JOHN P OJEDA MIDDLE", "OPSTFIPS": "48", "STREET": "4900 MCKINNEY FALLS PKWY", "CITY": "AUSTIN", "STATE": "TX", "ZIP": "78744", "STFIP": "48", "CNTY": "48453", "NMCNTY": "Travis County", "LOCALE": "41", "LAT": 30.190596, "LON": -97.712593, "CBSA": "12420", "NMCBSA": "Austin-Round Rock, TX", "CBSATYPE": "1", "CSA": "N", "NMCSA": "N", "NECTA": "N", "NMNECTA": "N", "CD": "4835", "SLDL": "48051", "SLDU": "48021", "SCHOOLYEAR": "2018-2019" }, "geometry": { "type": "Point", "coordinates": [ -97.712600613999939, 30.19060120100005 ] } },
{ "type": "Feature", "properties": { "FID": 85018, "NCESSCH": "481662012337", "LEAID": "4816620", "NAME": "DAILEY MIDDLE", "OPSTFIPS": "48", "STREET": "14000 WESTALL ST", "CITY": "AUSTIN", "STATE": "TX", "ZIP": "78725", "STFIP": "48", "CNTY": "48453", "NMCNTY": "Travis County", "LOCALE": "21", "LAT": 30.243437, "LON": -97.5898, "CBSA": "12420", "NMCBSA": "Austin-Round Rock, TX", "CBSATYPE": "1", "CSA": "N", "NMCSA": "N", "NECTA": "N", "NMNECTA": "N", "CD": "4835", "SLDL": "48051", "SLDU": "48014", "SCHOOLYEAR": "2018-2019" }, "geometry": { "type": "Point", "coordinates": [ -97.589807586999939, 30.243442217000052 ] } },
{ "type": "Feature", "properties": { "FID": 85019, "NCESSCH": "481662012601", "LEAID": "4816620", "NAME": "JOSEPH GILBERT EL", "OPSTFIPS": "48", "STREET": "5412 GILBERT RD", "CITY": "AUSTIN", "STATE": "TX", "ZIP": "78724", "STFIP": "48", "CNTY": "48453", "NMCNTY": "Travis County", "LOCALE": "41", "LAT": 30.258069, "LON": -97.593006, "CBSA": "12420", "NMCBSA": "Austin-Round Rock, TX", "CBSATYPE": "1", "CSA": "N", "NMCSA": "N", "NECTA": "N", "NMNECTA": "N", "CD": "4835", "SLDL": "48046", "SLDU": "48014", "SCHOOLYEAR": "2018-2019" }, "geometry": { "type": "Point", "coordinates": [ -97.593013588999952, 30.258074219000036 ] } },
{ "type": "Feature", "properties": { "FID": 85020, "NCESSCH": "481662013609", "LEAID": "4816620", "NAME": "NEWTON COLLINS EL", "OPSTFIPS": "48", "STREET": "7609 APOGEE BLVD", "CITY": "AUSTIN", "STATE": "TX", "ZIP": "78744", "STFIP": "48", "CNTY": "48453", "NMCNTY": "Travis County", "LOCALE": "41", "LAT": 30.153059, "LON": -97.713626, "CBSA": "12420", "NMCBSA": "Austin-Round Rock, TX", "CBSATYPE": "1", "CSA": "N", "NMCSA": "N", "NECTA": "N", "NMNECTA": "N", "CD": "4835", "SLDL": "48051", "SLDU": "48021", "SCHOOLYEAR": "2018-2019" }, "geometry": { "type": "Point", "coordinates": [ -97.713633613999946, 30.153064194000024 ] } },
{ "type": "Feature", "properties": { "FID": 85253, "NCESSCH": "481776001546", "LEAID": "4817760", "NAME": "CEDAR CREEK EL", "OPSTFIPS": "48", "STREET": "3301 PINNACLE RD", "CITY": "AUSTIN", "STATE": "TX", "ZIP": "78746", "STFIP": "48", "CNTY": "48453", "NMCNTY": "Travis County", "LOCALE": "11", "LAT": 30.268906, "LON": -97.805906, "CBSA": "12420", "NMCBSA": "Austin-Round Rock, TX", "CBSATYPE": "1", "CSA": "N", "NMCSA": "N", "NECTA": "N", "NMNECTA": "N", "CD": "4825", "SLDL": "48048", "SLDU": "48014", "SCHOOLYEAR": "2018-2019" }, "geometry": { "type": "Point", "coordinates": [ -97.80591364199995, 30.26891121400007 ] } },
{ "type": "Feature", "properties": { "FID": 85254, "NCESSCH": "481776001547", "LEAID": "4817760", "NAME": "EANES EL", "OPSTFIPS": "48", "STREET": "4101 BEE CAVE RD", "CITY": "AUSTIN", "STATE": "TX", "ZIP": "78746", "STFIP": "48", "CNTY": "48453", "NMCNTY": "Travis County", "LOCALE": "21", "LAT": 30.283164, "LON": -97.811418, "CBSA": "12420", "NMCBSA": "Austin-Round Rock, TX", "CBSATYPE": "1", "CSA": "N", "NMCSA": "N", "NECTA": "N", "NMNECTA": "N", "CD": "4825", "SLDL": "48048", "SLDU": "48014", "SCHOOLYEAR": "2018-2019" }, "geometry": { "type": "Point", "coordinates": [ -97.811425643999939, 30.283169217000079 ] } },
{ "type": "Feature", "properties": { "FID": 85255, "NCESSCH": "481776001548", "LEAID": "4817760", "NAME": "HILL COUNTRY MIDDLE", "OPSTFIPS": "48", "STREET": "1300 WALSH TARLETON RD", "CITY": "AUSTIN", "STATE": "TX", "ZIP": "78746", "STFIP": "48", "CNTY": "48453", "NMCNTY": "Travis County", "LOCALE": "21", "LAT": 30.271104, "LON": -97.803365, "CBSA": "12420", "NMCBSA": "Austin-Round Rock, TX", "CBSATYPE": "1", "CSA": "N", "NMCSA": "N", "NECTA": "N", "NMNECTA": "N", "CD": "4825", "SLDL": "48048", "SLDU": "48014", "SCHOOLYEAR": "2018-2019" }, "geometry": { "type": "Point", "coordinates": [ -97.803372640999953, 30.271109214000035 ] } },
{ "type": "Feature", "properties": { "FID": 85256, "NCESSCH": "481776001549", "LEAID": "4817760", "NAME": "WESTLAKE H S", "OPSTFIPS": "48", "STREET": "4100 WESTBANK DR", "CITY": "AUSTIN", "STATE": "TX", "ZIP": "78746", "STFIP": "48", "CNTY": "48453", "NMCNTY": "Travis County", "LOCALE": "21", "LAT": 30.276354, "LON": -97.81465, "CBSA": "12420", "NMCBSA": "Austin-Round Rock, TX", "CBSATYPE": "1", "CSA": "N", "NMCSA": "N", "NECTA": "N", "NMNECTA": "N", "CD": "4825", "SLDL": "48048", "SLDU": "48014", "SCHOOLYEAR": "2018-2019" }, "geometry": { "type": "Point", "coordinates": [ -97.814657643999965, 30.27635921500007 ] } },
{ "type": "Feature", "properties": { "FID": 85257, "NCESSCH": "481776005699", "LEAID": "4817760", "NAME": "VALLEY VIEW EL", "OPSTFIPS": "48", "STREET": "1201 LOOP 360 S", "CITY": "AUSTIN", "STATE": "TX", "ZIP": "78746", "STFIP": "48", "CNTY": "48453", "NMCNTY": "Travis County", "LOCALE": "21", "LAT": 30.28289, "LON": -97.821007, "CBSA": "12420", "NMCBSA": "Austin-Round Rock, TX", "CBSATYPE": "1", "CSA": "N", "NMCSA": "N", "NECTA": "N", "NMNECTA": "N", "CD": "4825", "SLDL": "48048", "SLDU": "48014", "SCHOOLYEAR": "2018-2019" }, "geometry": { "type": "Point", "coordinates": [ -97.821014645999981, 30.282895216000043 ] } },
{ "type": "Feature", "properties": { "FID": 85258, "NCESSCH": "481776005979", "LEAID": "4817760", "NAME": "FOREST TRAIL EL", "OPSTFIPS": "48", "STREET": "1203 LOOP 360 S", "CITY": "AUSTIN", "STATE": "TX", "ZIP": "78746", "STFIP": "48", "CNTY": "48453", "NMCNTY": "Travis County", "LOCALE": "21", "LAT": 30.281195, "LON": -97.819719, "CBSA": "12420", "NMCBSA": "Austin-Round Rock, TX", "CBSATYPE": "1", "CSA": "N", "NMCSA": "N", "NECTA": "N", "NMNECTA": "N", "CD": "4825", "SLDL": "48048", "SLDU": "48014", "SCHOOLYEAR": "2018-2019" }, "geometry": { "type": "Point", "coordinates": [ -97.81972664599999, 30.281200216000059 ] } },
{ "type": "Feature", "properties": { "FID": 85259, "NCESSCH": "481776006398", "LEAID": "4817760", "NAME": "WEST RIDGE MIDDLE", "OPSTFIPS": "48", "STREET": "9201 SCENIC BLUFF DR", "CITY": "AUSTIN", "STATE": "TX", "ZIP": "78733", "STFIP": "48", "CNTY": "48453", "NMCNTY": "Travis County", "LOCALE": "21", "LAT": 30.302806, "LON": -97.883966, "CBSA": "12420", "NMCBSA": "Austin-Round Rock, TX", "CBSATYPE": "1", "CSA": "N", "NMCSA": "N", "NECTA": "N", "NMNECTA": "N", "CD": "4821", "SLDL": "48047", "SLDU": "48014", "SCHOOLYEAR": "2018-2019" }, "geometry": { "type": "Point", "coordinates": [ -97.883973662999949, 30.302811217000055 ] } },
{ "type": "Feature", "properties": { "FID": 85260, "NCESSCH": "481776007742", "LEAID": "4817760", "NAME": "BRIDGE POINT EL", "OPSTFIPS": "48", "STREET": "6401 CEDAR ST", "CITY": "AUSTIN", "STATE": "TX", "ZIP": "78746", "STFIP": "48", "CNTY": "48453", "NMCNTY": "Travis County", "LOCALE": "11", "LAT": 30.339656, "LON": -97.805905, "CBSA": "12420", "NMCBSA": "Austin-Round Rock, TX", "CBSATYPE": "1", "CSA": "N", "NMCSA": "N", "NECTA": "N", "NMNECTA": "N", "CD": "4825", "SLDL": "48048", "SLDU": "48014", "SCHOOLYEAR": "2018-2019" }, "geometry": { "type": "Point", "coordinates": [ -97.805912644999978, 30.339661228000068 ] } },
{ "type": "Feature", "properties": { "FID": 85261, "NCESSCH": "481776009079", "LEAID": "4817760", "NAME": "WESTLAKE ALTER", "OPSTFIPS": "48", "STREET": "4100 WESTBANK DR", "CITY": "AUSTIN", "STATE": "TX", "ZIP": "78746", "STFIP": "48", "CNTY": "48453", "NMCNTY": "Travis County", "LOCALE": "21", "LAT": 30.276354, "LON": -97.81465, "CBSA": "12420", "NMCBSA": "Austin-Round Rock, TX", "CBSATYPE": "1", "CSA": "N", "NMCSA": "N", "NECTA": "N", "NMNECTA": "N", "CD": "4825", "SLDL": "48048", "SLDU": "48014", "SCHOOLYEAR": "2018-2019" }, "geometry": { "type": "Point", "coordinates": [ -97.814657643999965, 30.27635921500007 ] } },
{ "type": "Feature", "properties": { "FID": 85262, "NCESSCH": "481776011068", "LEAID": "4817760", "NAME": "TRAVIS CO J J A E P", "OPSTFIPS": "48", "STREET": "601 CAMP CRAFT RD", "CITY": "AUSTIN", "STATE": "TX", "ZIP": "78746", "STFIP": "48", "CNTY": "48453", "NMCNTY": "Travis County", "LOCALE": "11", "LAT": 30.236591, "LON": -97.754741, "CBSA": "12420", "NMCBSA": "Austin-Round Rock, TX", "CBSATYPE": "1", "CSA": "N", "NMCSA": "N", "NECTA": "N", "NMNECTA": "N", "CD": "4821", "SLDL": "48051", "SLDU": "48014", "SCHOOLYEAR": "2018-2019" }, "geometry": { "type": "Point", "coordinates": [ -97.754748626999969, 30.236596209000027 ] } },
{ "type": "Feature", "properties": { "FID": 85263, "NCESSCH": "481776013184", "LEAID": "4817760", "NAME": "ADULT TRANSITION SERVICES", "OPSTFIPS": "48", "STREET": "1020 WALSH TARLETON", "CITY": "AUSTIN", "STATE": "TX", "ZIP": "78746", "STFIP": "48", "CNTY": "48453", "NMCNTY": "Travis County", "LOCALE": "11", "LAT": 30.272959, "LON": -97.801922, "CBSA": "12420", "NMCBSA": "Austin-Round Rock, TX", "CBSATYPE": "1", "CSA": "N", "NMCSA": "N", "NECTA": "N", "NMNECTA": "N", "CD": "4825", "SLDL": "48048", "SLDU": "48014", "SCHOOLYEAR": "2018-2019" }, "geometry": { "type": "Point", "coordinates": [ -97.801929640999958, 30.272964215000059 ] } },
{ "type": "Feature", "properties": { "FID": 85264, "NCESSCH": "481776021527", "LEAID": "4817760", "NAME": "BARTON CREEK EL", "OPSTFIPS": "48", "STREET": "1370 PATTERSON RD", "CITY": "AUSTIN", "STATE": "TX", "ZIP": "78733", "STFIP": "48", "CNTY": "48453", "NMCNTY": "Travis County", "LOCALE": "21", "LAT": 30.306848, "LON": -97.881012, "CBSA": "12420", "NMCBSA": "Austin-Round Rock, TX", "CBSATYPE": "1", "CSA": "N", "NMCSA": "N", "NECTA": "N", "NMNECTA": "N", "CD": "4821", "SLDL": "48047", "SLDU": "48014", "SCHOOLYEAR": "2018-2019" }, "geometry": { "type": "Point", "coordinates": [ -97.881019661999972, 30.306853218000072 ] } },
{ "type": "Feature", "properties": { "FID": 87635, "NCESSCH": "482640012434", "LEAID": "4826400", "NAME": "TRAVIS COUNTY JJAEP", "OPSTFIPS": "48", "STREET": "901 NEAL ST", "CITY": "AUSTIN", "STATE": "TX", "ZIP": "78702", "STFIP": "48", "CNTY": "48453", "NMCNTY": "Travis County", "LOCALE": "11", "LAT": 30.236591, "LON": -97.754741, "CBSA": "12420", "NMCBSA": "Austin-Round Rock, TX", "CBSATYPE": "1", "CSA": "N", "NMCSA": "N", "NECTA": "N", "NMNECTA": "N", "CD": "4821", "SLDL": "48051", "SLDU": "48014", "SCHOOLYEAR": "2018-2019" }, "geometry": { "type": "Point", "coordinates": [ -97.754748626999969, 30.236596209000027 ] } },
{ "type": "Feature", "properties": { "FID": 87643, "NCESSCH": "482647002520", "LEAID": "4826470", "NAME": "LAKEWAY EL", "OPSTFIPS": "48", "STREET": "1701 LOHMANS CROSSING RD", "CITY": "AUSTIN", "STATE": "TX", "ZIP": "78734", "STFIP": "48", "CNTY": "48453", "NMCNTY": "Travis County", "LOCALE": "21", "LAT": 30.352909, "LON": -97.976031, "CBSA": "12420", "NMCBSA": "Austin-Round Rock, TX", "CBSATYPE": "1", "CSA": "N", "NMCSA": "N", "NECTA": "N", "NMNECTA": "N", "CD": "4825", "SLDL": "48047", "SLDU": "48024", "SCHOOLYEAR": "2018-2019" }, "geometry": { "type": "Point", "coordinates": [ -97.97603868799996, 30.352914224000074 ] } },
{ "type": "Feature", "properties": { "FID": 87644, "NCESSCH": "482647005762", "LEAID": "4826470", "NAME": "LAKE TRAVIS EL", "OPSTFIPS": "48", "STREET": "15303 KOLLMEYER", "CITY": "AUSTIN", "STATE": "TX", "ZIP": "78734", "STFIP": "48", "CNTY": "48453", "NMCNTY": "Travis County", "LOCALE": "41", "LAT": 30.370483, "LON": -97.944814, "CBSA": "12420", "NMCBSA": "Austin-Round Rock, TX", "CBSATYPE": "1", "CSA": "N", "NMCSA": "N", "NECTA": "N", "NMNECTA": "N", "CD": "4825", "SLDL": "48047", "SLDU": "48024", "SCHOOLYEAR": "2018-2019" }, "geometry": { "type": "Point", "coordinates": [ -97.944821680999951, 30.370488228000056 ] } },
{ "type": "Feature", "properties": { "FID": 87645, "NCESSCH": "482647005763", "LEAID": "4826470", "NAME": "LAKE TRAVIS H S", "OPSTFIPS": "48", "STREET": "3324 RANCH RD 620 S", "CITY": "AUSTIN", "STATE": "TX", "ZIP": "78738", "STFIP": "48", "CNTY": "48453", "NMCNTY": "Travis County", "LOCALE": "21", "LAT": 30.327959, "LON": -97.966869, "CBSA": "12420", "NMCBSA": "Austin-Round Rock, TX", "CBSATYPE": "1", "CSA": "N", "NMCSA": "N", "NECTA": "N", "NMNECTA": "N", "CD": "4825", "SLDL": "48047", "SLDU": "48024", "SCHOOLYEAR": "2018-2019" }, "geometry": { "type": "Point", "coordinates": [ -97.966876684999988, 30.327964220000069 ] } },
{ "type": "Feature", "properties": { "FID": 87647, "NCESSCH": "482647008395", "LEAID": "4826470", "NAME": "BEE CAVE EL", "OPSTFIPS": "48", "STREET": "14300 HAMILTON POOL RD", "CITY": "AUSTIN", "STATE": "TX", "ZIP": "78738", "STFIP": "48", "CNTY": "48453", "NMCNTY": "Travis County", "LOCALE": "41", "LAT": 30.309203, "LON": -97.968308, "CBSA": "12420", "NMCBSA": "Austin-Round Rock, TX", "CBSATYPE": "1", "CSA": "N", "NMCSA": "N", "NECTA": "N", "NMNECTA": "N", "CD": "4825", "SLDL": "48047", "SLDU": "48024", "SCHOOLYEAR": "2018-2019" }, "geometry": { "type": "Point", "coordinates": [ -97.968315683999947, 30.309208215000069 ] } },
{ "type": "Feature", "properties": { "FID": 87648, "NCESSCH": "482647008945", "LEAID": "4826470", "NAME": "HUDSON BEND MIDDLE", "OPSTFIPS": "48", "STREET": "15600 LARIAT TRL", "CITY": "AUSTIN", "STATE": "TX", "ZIP": "78734", "STFIP": "48", "CNTY": "48453", "NMCNTY": "Travis County", "LOCALE": "21", "LAT": 30.391035, "LON": -97.934852, "CBSA": "12420", "NMCBSA": "Austin-Round Rock, TX", "CBSATYPE": "1", "CSA": "N", "NMCSA": "N", "NECTA": "N", "NMNECTA": "N", "CD": "4825", "SLDL": "48047", "SLDU": "48024", "SCHOOLYEAR": "2018-2019" }, "geometry": { "type": "Point", "coordinates": [ -97.934859679999988, 30.391040233000069 ] } },
{ "type": "Feature", "properties": { "FID": 87649, "NCESSCH": "482647009081", "LEAID": "4826470", "NAME": "TRAVIS CO J J A E P", "OPSTFIPS": "48", "STREET": "3322 RANCH RD 620 S", "CITY": "AUSTIN", "STATE": "TX", "ZIP": "78738", "STFIP": "48", "CNTY": "48453", "NMCNTY": "Travis County", "LOCALE": "11", "LAT": 30.236591, "LON": -97.754741, "CBSA": "12420", "NMCBSA": "Austin-Round Rock, TX", "CBSATYPE": "1", "CSA": "N", "NMCSA": "N", "NECTA": "N", "NMNECTA": "N", "CD": "4821", "SLDL": "48051", "SLDU": "48014", "SCHOOLYEAR": "2018-2019" }, "geometry": { "type": "Point", "coordinates": [ -97.754748626999969, 30.236596209000027 ] } },
{ "type": "Feature", "properties": { "FID": 87650, "NCESSCH": "482647009414", "LEAID": "4826470", "NAME": "LAKE POINTE EL", "OPSTFIPS": "48", "STREET": "11801 SONOMA DR", "CITY": "AUSTIN", "STATE": "TX", "ZIP": "78738", "STFIP": "48", "CNTY": "48453", "NMCNTY": "Travis County", "LOCALE": "21", "LAT": 30.309468, "LON": -97.920704, "CBSA": "12420", "NMCBSA": "Austin-Round Rock, TX", "CBSATYPE": "1", "CSA": "N", "NMCSA": "N", "NECTA": "N", "NMNECTA": "N", "CD": "4825", "SLDL": "48047", "SLDU": "48024", "SCHOOLYEAR": "2018-2019" }, "geometry": { "type": "Point", "coordinates": [ -97.920711671999982, 30.309473218000051 ] } },
{ "type": "Feature", "properties": { "FID": 87651, "NCESSCH": "482647011479", "LEAID": "4826470", "NAME": "SERENE HILLS EL", "OPSTFIPS": "48", "STREET": "3301 SERENE HILLS DR", "CITY": "AUSTIN", "STATE": "TX", "ZIP": "78738", "STFIP": "48", "CNTY": "48453", "NMCNTY": "Travis County", "LOCALE": "41", "LAT": 30.348306, "LON": -97.996556, "CBSA": "12420", "NMCBSA": "Austin-Round Rock, TX", "CBSATYPE": "1", "CSA": "N", "NMCSA": "N", "NECTA": "N", "NMNECTA": "N", "CD": "4825", "SLDL": "48047", "SLDU": "48024", "SCHOOLYEAR": "2018-2019" }, "geometry": { "type": "Point", "coordinates": [ -97.996563691999938, 30.348311222000063 ] } },
{ "type": "Feature", "properties": { "FID": 87653, "NCESSCH": "482647013703", "LEAID": "4826470", "NAME": "BEE CAVE MIDDLE", "OPSTFIPS": "48", "STREET": "5400 VAIL DIVIDE", "CITY": "AUSTIN", "STATE": "TX", "ZIP": "78738", "STFIP": "48", "CNTY": "48453", "NMCNTY": "Travis County", "LOCALE": "41", "LAT": 30.312422, "LON": -97.997969, "CBSA": "12420", "NMCBSA": "Austin-Round Rock, TX", "CBSATYPE": "1", "CSA": "N", "NMCSA": "N", "NECTA": "N", "NMNECTA": "N", "CD": "4825", "SLDL": "48047", "SLDU": "48024", "SCHOOLYEAR": "2018-2019" }, "geometry": { "type": "Point", "coordinates": [ -97.997976690999963, 30.312427215000071 ] } },
{ "type": "Feature", "properties": { "FID": 87654, "NCESSCH": "482647013803", "LEAID": "4826470", "NAME": "NEW EL", "OPSTFIPS": "48", "STREET": "4219 BEE CREEK RD", "CITY": "AUSTIN", "STATE": "TX", "ZIP": "78738", "STFIP": "48", "CNTY": "48453", "NMCNTY": "Travis County", "LOCALE": "41", "LAT": 30.349462, "LON": -98.026799, "CBSA": "12420", "NMCBSA": "Austin-Round Rock, TX", "CBSATYPE": "1", "CSA": "N", "NMCSA": "N", "NECTA": "N", "NMNECTA": "N", "CD": "4825", "SLDL": "48047", "SLDU": "48024", "SCHOOLYEAR": "2018-2019" }, "geometry": { "type": "Point", "coordinates": [ -98.026806700999941, 30.349467221000054 ] } },
{ "type": "Feature", "properties": { "FID": 87777, "NCESSCH": "482703007498", "LEAID": "4827030", "NAME": "STEINER RANCH EL", "OPSTFIPS": "48", "STREET": "4001 QUINLAN PARK RD", "CITY": "AUSTIN", "STATE": "TX", "ZIP": "78732", "STFIP": "48", "CNTY": "48453", "NMCNTY": "Travis County", "LOCALE": "21", "LAT": 30.379053, "LON": -97.884145, "CBSA": "12420", "NMCBSA": "Austin-Round Rock, TX", "CBSATYPE": "1", "CSA": "N", "NMCSA": "N", "NECTA": "N", "NMNECTA": "N", "CD": "4825", "SLDL": "48047", "SLDU": "48014", "SCHOOLYEAR": "2018-2019" }, "geometry": { "type": "Point", "coordinates": [ -97.884152666999967, 30.379058233000023 ] } },
{ "type": "Feature", "properties": { "FID": 87788, "NCESSCH": "482703009440", "LEAID": "4827030", "NAME": "LAURA WELCH BUSH EL", "OPSTFIPS": "48", "STREET": "12600 COUNTRY TRAILS", "CITY": "AUSTIN", "STATE": "TX", "ZIP": "78732", "STFIP": "48", "CNTY": "48453", "NMCNTY": "Travis County", "LOCALE": "21", "LAT": 30.36607, "LON": -97.900333, "CBSA": "12420", "NMCBSA": "Austin-Round Rock, TX", "CBSATYPE": "1", "CSA": "N", "NMCSA": "N", "NECTA": "N", "NMNECTA": "N", "CD": "4825", "SLDL": "48047", "SLDU": "48014", "SCHOOLYEAR": "2018-2019" }, "geometry": { "type": "Point", "coordinates": [ -97.90034067, 30.366075229000046 ] } },
{ "type": "Feature", "properties": { "FID": 87790, "NCESSCH": "482703011110", "LEAID": "4827030", "NAME": "CANYON RIDGE MIDDLE", "OPSTFIPS": "48", "STREET": "12601 COUNTRY TRAILS LN", "CITY": "AUSTIN", "STATE": "TX", "ZIP": "78732", "STFIP": "48", "CNTY": "48453", "NMCNTY": "Travis County", "LOCALE": "21", "LAT": 30.365046, "LON": -97.902949, "CBSA": "12420", "NMCBSA": "Austin-Round Rock, TX", "CBSATYPE": "1", "CSA": "N", "NMCSA": "N", "NECTA": "N", "NMNECTA": "N", "CD": "4825", "SLDL": "48047", "SLDU": "48014", "SCHOOLYEAR": "2018-2019" }, "geometry": { "type": "Point", "coordinates": [ -97.90295667, 30.365051229000073 ] } },
{ "type": "Feature", "properties": { "FID": 87793, "NCESSCH": "482703011113", "LEAID": "4827030", "NAME": "RUTLEDGE EL", "OPSTFIPS": "48", "STREET": "11501 STAKED PLAINS DR", "CITY": "AUSTIN", "STATE": "TX", "ZIP": "78717", "STFIP": "48", "CNTY": "48491", "NMCNTY": "Williamson County", "LOCALE": "11", "LAT": 30.49792, "LON": -97.79333, "CBSA": "12420", "NMCBSA": "Austin-Round Rock, TX", "CBSATYPE": "1", "CSA": "N", "NMCSA": "N", "NECTA": "N", "NMNECTA": "N", "CD": "4831", "SLDL": "48136", "SLDU": "48005", "SCHOOLYEAR": "2018-2019" }, "geometry": { "type": "Point", "coordinates": [ -97.793337648999966, 30.497925259000056 ] } },
{ "type": "Feature", "properties": { "FID": 87797, "NCESSCH": "482703011434", "LEAID": "4827030", "NAME": "GRANDVIEW HILLS EL", "OPSTFIPS": "48", "STREET": "12024 VISTA PARKE DR", "CITY": "AUSTIN", "STATE": "TX", "ZIP": "78726", "STFIP": "48", "CNTY": "48453", "NMCNTY": "Travis County", "LOCALE": "41", "LAT": 30.415844, "LON": -97.853578, "CBSA": "12420", "NMCBSA": "Austin-Round Rock, TX", "CBSATYPE": "1", "CSA": "N", "NMCSA": "N", "NECTA": "N", "NMNECTA": "N", "CD": "4810", "SLDL": "48047", "SLDU": "48014", "SCHOOLYEAR": "2018-2019" }, "geometry": { "type": "Point", "coordinates": [ -97.853585660999954, 30.415849241000046 ] } },
{ "type": "Feature", "properties": { "FID": 87799, "NCESSCH": "482703011528", "LEAID": "4827030", "NAME": "RIVER PLACE EL", "OPSTFIPS": "48", "STREET": "6500 SITIO DEL RIO BLVD", "CITY": "AUSTIN", "STATE": "TX", "ZIP": "78730", "STFIP": "48", "CNTY": "48453", "NMCNTY": "Travis County", "LOCALE": "11", "LAT": 30.390036, "LON": -97.845224, "CBSA": "12420", "NMCBSA": "Austin-Round Rock, TX", "CBSATYPE": "1", "CSA": "N", "NMCSA": "N", "NECTA": "N", "NMNECTA": "N", "CD": "4825", "SLDL": "48047", "SLDU": "48014", "SCHOOLYEAR": "2018-2019" }, "geometry": { "type": "Point", "coordinates": [ -97.845231656999943, 30.390041235000069 ] } },
{ "type": "Feature", "properties": { "FID": 87801, "NCESSCH": "482703011991", "LEAID": "4827030", "NAME": "RIVER RIDGE EL", "OPSTFIPS": "48", "STREET": "12900 TIERRA GRANDE TRL", "CITY": "AUSTIN", "STATE": "TX", "ZIP": "78732", "STFIP": "48", "CNTY": "48453", "NMCNTY": "Travis County", "LOCALE": "21", "LAT": 30.346319, "LON": -97.915729, "CBSA": "12420", "NMCBSA": "Austin-Round Rock, TX", "CBSATYPE": "1", "CSA": "N", "NMCSA": "N", "NECTA": "N", "NMNECTA": "N", "CD": "4825", "SLDL": "48047", "SLDU": "48014", "SCHOOLYEAR": "2018-2019" }, "geometry": { "type": "Point", "coordinates": [ -97.915736672999969, 30.346324225000046 ] } },
{ "type": "Feature", "properties": { "FID": 87803, "NCESSCH": "482703012156", "LEAID": "4827030", "NAME": "VANDEGRIFT H S", "OPSTFIPS": "48", "STREET": "9500 MCNEIL DR", "CITY": "AUSTIN", "STATE": "TX", "ZIP": "78750", "STFIP": "48", "CNTY": "48453", "NMCNTY": "Travis County", "LOCALE": "41", "LAT": 30.398385, "LON": -97.824676, "CBSA": "12420", "NMCBSA": "Austin-Round Rock, TX", "CBSATYPE": "1", "CSA": "N", "NMCSA": "N", "NECTA": "N", "NMNECTA": "N", "CD": "4810", "SLDL": "48048", "SLDU": "48014", "SCHOOLYEAR": "2018-2019" }, "geometry": { "type": "Point", "coordinates": [ -97.824683652999965, 30.398390238000047 ] } },
{ "type": "Feature", "properties": { "FID": 87806, "NCESSCH": "482703012381", "LEAID": "4827030", "NAME": "FOUR POINTS MIDDLE", "OPSTFIPS": "48", "STREET": "9700 MCNEIL DR", "CITY": "AUSTIN", "STATE": "TX", "ZIP": "78750", "STFIP": "48", "CNTY": "48453", "NMCNTY": "Travis County", "LOCALE": "41", "LAT": 30.396705, "LON": -97.829746, "CBSA": "12420", "NMCBSA": "Austin-Round Rock, TX", "CBSATYPE": "1", "CSA": "N", "NMCSA": "N", "NECTA": "N", "NMNECTA": "N", "CD": "4810", "SLDL": "48048", "SLDU": "48014", "SCHOOLYEAR": "2018-2019" }, "geometry": { "type": "Point", "coordinates": [ -97.829753653999944, 30.396710237000036 ] } },
{ "type": "Feature", "properties": { "FID": 88170, "NCESSCH": "482889005491", "LEAID": "4828890", "NAME": "BLUEBONNET TRAIL EL", "OPSTFIPS": "48", "STREET": "11316 FARMHAVEN RD", "CITY": "AUSTIN", "STATE": "TX", "ZIP": "78754", "STFIP": "48", "CNTY": "48453", "NMCNTY": "Travis County", "LOCALE": "41", "LAT": 30.351549, "LON": -97.618503, "CBSA": "12420", "NMCBSA": "Austin-Round Rock, TX", "CBSATYPE": "1", "CSA": "N", "NMCSA": "N", "NECTA": "N", "NMNECTA": "N", "CD": "4810", "SLDL": "48050", "SLDU": "48014", "SCHOOLYEAR": "2018-2019" }, "geometry": { "type": "Point", "coordinates": [ -97.61851059899999, 30.351554237000073 ] } },
{ "type": "Feature", "properties": { "FID": 88176, "NCESSCH": "482889011390", "LEAID": "4828890", "NAME": "OAK MEADOWS EL", "OPSTFIPS": "48", "STREET": "5600 DECKER LN", "CITY": "AUSTIN", "STATE": "TX", "ZIP": "78724", "STFIP": "48", "CNTY": "48453", "NMCNTY": "Travis County", "LOCALE": "11", "LAT": 30.280925, "LON": -97.635962, "CBSA": "12420", "NMCBSA": "Austin-Round Rock, TX", "CBSATYPE": "1", "CSA": "N", "NMCSA": "N", "NECTA": "N", "NMNECTA": "N", "CD": "4835", "SLDL": "48046", "SLDU": "48014", "SCHOOLYEAR": "2018-2019" }, "geometry": { "type": "Point", "coordinates": [ -97.635969599999953, 30.280930222000052 ] } },
{ "type": "Feature", "properties": { "FID": 88178, "NCESSCH": "482889011453", "LEAID": "4828890", "NAME": "DECKER MIDDLE", "OPSTFIPS": "48", "STREET": "8104 DECKER LN", "CITY": "AUSTIN", "STATE": "TX", "ZIP": "78724", "STFIP": "48", "CNTY": "48453", "NMCNTY": "Travis County", "LOCALE": "21", "LAT": 30.310664, "LON": -97.621527, "CBSA": "12420", "NMCBSA": "Austin-Round Rock, TX", "CBSATYPE": "1", "CSA": "N", "NMCSA": "N", "NECTA": "N", "NMNECTA": "N", "CD": "4835", "SLDL": "48046", "SLDU": "48014", "SCHOOLYEAR": "2018-2019" }, "geometry": { "type": "Point", "coordinates": [ -97.621534597999982, 30.310669228000052 ] } },
{ "type": "Feature", "properties": { "FID": 88180, "NCESSCH": "482889011988", "LEAID": "4828890", "NAME": "PIONEER CROSSING EL", "OPSTFIPS": "48", "STREET": "11300 SAMSUNG BLVD", "CITY": "AUSTIN", "STATE": "TX", "ZIP": "78754", "STFIP": "48", "CNTY": "48453", "NMCNTY": "Travis County", "LOCALE": "41", "LAT": 30.362067, "LON": -97.639782, "CBSA": "12420", "NMCBSA": "Austin-Round Rock, TX", "CBSATYPE": "1", "CSA": "N", "NMCSA": "N", "NECTA": "N", "NMNECTA": "N", "CD": "4810", "SLDL": "48050", "SLDU": "48014", "SCHOOLYEAR": "2018-2019" }, "geometry": { "type": "Point", "coordinates": [ -97.639789604999976, 30.362072238000053 ] } },
{ "type": "Feature", "properties": { "FID": 89218, "NCESSCH": "483483005489", "LEAID": "4834830", "NAME": "RIVER OAKS EL", "OPSTFIPS": "48", "STREET": "12401 SCOFIELD FARMS DR", "CITY": "AUSTIN", "STATE": "TX", "ZIP": "78758", "STFIP": "48", "CNTY": "48453", "NMCNTY": "Travis County", "LOCALE": "11", "LAT": 30.408748, "LON": -97.687098, "CBSA": "12420", "NMCBSA": "Austin-Round Rock, TX", "CBSATYPE": "1", "CSA": "N", "NMCSA": "N", "NECTA": "N", "NMNECTA": "N", "CD": "4817", "SLDL": "48050", "SLDU": "48014", "SCHOOLYEAR": "2018-2019" }, "geometry": { "type": "Point", "coordinates": [ -97.687105618999965, 30.408753245000071 ] } },
{ "type": "Feature", "properties": { "FID": 89219, "NCESSCH": "483483005794", "LEAID": "4834830", "NAME": "PARMER LANE EL", "OPSTFIPS": "48", "STREET": "1806 PARMER LN", "CITY": "AUSTIN", "STATE": "TX", "ZIP": "78727", "STFIP": "48", "CNTY": "48453", "NMCNTY": "Travis County", "LOCALE": "11", "LAT": 30.414805, "LON": -97.691705, "CBSA": "12420", "NMCBSA": "Austin-Round Rock, TX", "CBSATYPE": "1", "CSA": "N", "NMCSA": "N", "NECTA": "N", "NMNECTA": "N", "CD": "4817", "SLDL": "48050", "SLDU": "48014", "SCHOOLYEAR": "2018-2019" }, "geometry": { "type": "Point", "coordinates": [ -97.691712620999965, 30.414810246000059 ] } },
{ "type": "Feature", "properties": { "FID": 89221, "NCESSCH": "483483006310", "LEAID": "4834830", "NAME": "NORTHWEST EL", "OPSTFIPS": "48", "STREET": "14014 THERMAL DR", "CITY": "AUSTIN", "STATE": "TX", "ZIP": "78728", "STFIP": "48", "CNTY": "48453", "NMCNTY": "Travis County", "LOCALE": "21", "LAT": 30.431891, "LON": -97.676044, "CBSA": "12420", "NMCBSA": "Austin-Round Rock, TX", "CBSATYPE": "1", "CSA": "N", "NMCSA": "N", "NECTA": "N", "NMNECTA": "N", "CD": "4817", "SLDL": "48050", "SLDU": "48014", "SCHOOLYEAR": "2018-2019" }, "geometry": { "type": "Point", "coordinates": [ -97.676051617999974, 30.431896250000079 ] } },
{ "type": "Feature", "properties": { "FID": 89222, "NCESSCH": "483483006463", "LEAID": "4834830", "NAME": "DESSAU EL", "OPSTFIPS": "48", "STREET": "1501 DESSAU RIDGE LN", "CITY": "AUSTIN", "STATE": "TX", "ZIP": "78754", "STFIP": "48", "CNTY": "48453", "NMCNTY": "Travis County", "LOCALE": "11", "LAT": 30.401839, "LON": -97.643645, "CBSA": "12420", "NMCBSA": "Austin-Round Rock, TX", "CBSATYPE": "1", "CSA": "N", "NMCSA": "N", "NECTA": "N", "NMNECTA": "N", "CD": "4817", "SLDL": "48050", "SLDU": "48014", "SCHOOLYEAR": "2018-2019" }, "geometry": { "type": "Point", "coordinates": [ -97.643652607999968, 30.401844245000063 ] } },
{ "type": "Feature", "properties": { "FID": 89223, "NCESSCH": "483483006596", "LEAID": "4834830", "NAME": "WESTVIEW MIDDLE", "OPSTFIPS": "48", "STREET": "1805 SCOFIELD LN", "CITY": "AUSTIN", "STATE": "TX", "ZIP": "78727", "STFIP": "48", "CNTY": "48453", "NMCNTY": "Travis County", "LOCALE": "11", "LAT": 30.416792, "LON": -97.689348, "CBSA": "12420", "NMCBSA": "Austin-Round Rock, TX", "CBSATYPE": "1", "CSA": "N", "NMCSA": "N", "NECTA": "N", "NMNECTA": "N", "CD": "4817", "SLDL": "48050", "SLDU": "48014", "SCHOOLYEAR": "2018-2019" }, "geometry": { "type": "Point", "coordinates": [ -97.689355619999958, 30.416797246000044 ] } },
{ "type": "Feature", "properties": { "FID": 89227, "NCESSCH": "483483007467", "LEAID": "4834830", "NAME": "JOHN B CONNALLY H S", "OPSTFIPS": "48", "STREET": "13212 N LAMAR", "CITY": "AUSTIN", "STATE": "TX", "ZIP": "78753", "STFIP": "48", "CNTY": "48453", "NMCNTY": "Travis County", "LOCALE": "11", "LAT": 30.419084, "LON": -97.676317, "CBSA": "12420", "NMCBSA": "Austin-Round Rock, TX", "CBSATYPE": "1", "CSA": "N", "NMCSA": "N", "NECTA": "N", "NMNECTA": "N", "CD": "4817", "SLDL": "48050", "SLDU": "48014", "SCHOOLYEAR": "2018-2019" }, "geometry": { "type": "Point", "coordinates": [ -97.676324616999977, 30.419089248000034 ] } },
{ "type": "Feature", "properties": { "FID": 89230, "NCESSCH": "483483008065", "LEAID": "4834830", "NAME": "COPPERFIELD EL", "OPSTFIPS": "48", "STREET": "12135 THOMPKINS DR", "CITY": "AUSTIN", "STATE": "TX", "ZIP": "78753", "STFIP": "48", "CNTY": "48453", "NMCNTY": "Travis County", "LOCALE": "11", "LAT": 30.388269, "LON": -97.659892, "CBSA": "12420", "NMCBSA": "Austin-Round Rock, TX", "CBSATYPE": "1", "CSA": "N", "NMCSA": "N", "NECTA": "N", "NMNECTA": "N", "CD": "4817", "SLDL": "48050", "SLDU": "48014", "SCHOOLYEAR": "2018-2019" }, "geometry": { "type": "Point", "coordinates": [ -97.659899610999958, 30.38827424200008 ] } },
{ "type": "Feature", "properties": { "FID": 89232, "NCESSCH": "483483008942", "LEAID": "4834830", "NAME": "DESSAU MIDDLE", "OPSTFIPS": "48", "STREET": "12900 DESSAU RD", "CITY": "AUSTIN", "STATE": "TX", "ZIP": "78754", "STFIP": "48", "CNTY": "48453", "NMCNTY": "Travis County", "LOCALE": "11", "LAT": 30.39868, "LON": -97.643312, "CBSA": "12420", "NMCBSA": "Austin-Round Rock, TX", "CBSATYPE": "1", "CSA": "N", "NMCSA": "N", "NECTA": "N", "NMNECTA": "N", "CD": "4817", "SLDL": "48050", "SLDU": "48014", "SCHOOLYEAR": "2018-2019" }, "geometry": { "type": "Point", "coordinates": [ -97.643319607999956, 30.398685245000024 ] } },
{ "type": "Feature", "properties": { "FID": 89234, "NCESSCH": "483483009411", "LEAID": "4834830", "NAME": "DELCO PRI", "OPSTFIPS": "48", "STREET": "12900 A DESSAU RD", "CITY": "AUSTIN", "STATE": "TX", "ZIP": "78754", "STFIP": "48", "CNTY": "48453", "NMCNTY": "Travis County", "LOCALE": "11", "LAT": 30.399955, "LON": -97.645334, "CBSA": "12420", "NMCBSA": "Austin-Round Rock, TX", "CBSATYPE": "1", "CSA": "N", "NMCSA": "N", "NECTA": "N", "NMNECTA": "N", "CD": "4817", "SLDL": "48050", "SLDU": "48014", "SCHOOLYEAR": "2018-2019" }, "geometry": { "type": "Point", "coordinates": [ -97.645341607999967, 30.399960245000045 ] } },
{ "type": "Feature", "properties": { "FID": 89798, "NCESSCH": "483808002306", "LEAID": "4838080", "NAME": "JOLLYVILLE EL", "OPSTFIPS": "48", "STREET": "6720 CORPUS CHRISTI DR", "CITY": "AUSTIN", "STATE": "TX", "ZIP": "78729", "STFIP": "48", "CNTY": "48453", "NMCNTY": "Travis County", "LOCALE": "11", "LAT": 30.444326, "LON": -97.750722, "CBSA": "12420", "NMCBSA": "Austin-Round Rock, TX", "CBSATYPE": "1", "CSA": "N", "NMCSA": "N", "NECTA": "N", "NMNECTA": "N", "CD": "4817", "SLDL": "48050", "SLDU": "48014", "SCHOOLYEAR": "2018-2019" }, "geometry": { "type": "Point", "coordinates": [ -97.75072963599996, 30.444331250000062 ] } },
{ "type": "Feature", "properties": { "FID": 89799, "NCESSCH": "483808004247", "LEAID": "4838080", "NAME": "ANDERSON MILL EL", "OPSTFIPS": "48", "STREET": "10610 SALT MILL HOLLOW", "CITY": "AUSTIN", "STATE": "TX", "ZIP": "78750", "STFIP": "48", "CNTY": "48491", "NMCNTY": "Williamson County", "LOCALE": "11", "LAT": 30.452678, "LON": -97.806434, "CBSA": "12420", "NMCBSA": "Austin-Round Rock, TX", "CBSATYPE": "1", "CSA": "N", "NMCSA": "N", "NECTA": "N", "NMNECTA": "N", "CD": "4831", "SLDL": "48136", "SLDU": "48005", "SCHOOLYEAR": "2018-2019" }, "geometry": { "type": "Point", "coordinates": [ -97.806441650999943, 30.452683249000074 ] } },
{ "type": "Feature", "properties": { "FID": 89802, "NCESSCH": "483808004250", "LEAID": "4838080", "NAME": "FOREST NORTH EL", "OPSTFIPS": "48", "STREET": "13414 BROADMEADE AVE", "CITY": "AUSTIN", "STATE": "TX", "ZIP": "78729", "STFIP": "48", "CNTY": "48491", "NMCNTY": "Williamson County", "LOCALE": "11", "LAT": 30.470675, "LON": -97.78187, "CBSA": "12420", "NMCBSA": "Austin-Round Rock, TX", "CBSATYPE": "1", "CSA": "N", "NMCSA": "N", "NECTA": "N", "NMNECTA": "N", "CD": "4831", "SLDL": "48136", "SLDU": "48005", "SCHOOLYEAR": "2018-2019" }, "geometry": { "type": "Point", "coordinates": [ -97.781877644999952, 30.470680254000058 ] } },
{ "type": "Feature", "properties": { "FID": 89803, "NCESSCH": "483808004251", "LEAID": "4838080", "NAME": "NOEL GRISHAM MIDDLE", "OPSTFIPS": "48", "STREET": "10805 SCHOOL HOUSE LN", "CITY": "AUSTIN", "STATE": "TX", "ZIP": "78750", "STFIP": "48", "CNTY": "48491", "NMCNTY": "Williamson County", "LOCALE": "11", "LAT": 30.456814, "LON": -97.807044, "CBSA": "12420", "NMCBSA": "Austin-Round Rock, TX", "CBSATYPE": "1", "CSA": "N", "NMCSA": "N", "NECTA": "N", "NMNECTA": "N", "CD": "4831", "SLDL": "48136", "SLDU": "48005", "SCHOOLYEAR": "2018-2019" }, "geometry": { "type": "Point", "coordinates": [ -97.807051650999938, 30.456819250000024 ] } },
{ "type": "Feature", "properties": { "FID": 89804, "NCESSCH": "483808004252", "LEAID": "4838080", "NAME": "KATHY CARAWAY EL", "OPSTFIPS": "48", "STREET": "11104 OAK VIEW DR", "CITY": "AUSTIN", "STATE": "TX", "ZIP": "78759", "STFIP": "48", "CNTY": "48453", "NMCNTY": "Travis County", "LOCALE": "11", "LAT": 30.419875, "LON": -97.769418, "CBSA": "12420", "NMCBSA": "Austin-Round Rock, TX", "CBSATYPE": "1", "CSA": "N", "NMCSA": "N", "NECTA": "N", "NMNECTA": "N", "CD": "4810", "SLDL": "48050", "SLDU": "48014", "SCHOOLYEAR": "2018-2019" }, "geometry": { "type": "Point", "coordinates": [ -97.769425639999952, 30.419880244000069 ] } },
{ "type": "Feature", "properties": { "FID": 89807, "NCESSCH": "483808004257", "LEAID": "4838080", "NAME": "SPICEWOOD EL", "OPSTFIPS": "48", "STREET": "11601 OLSON DR", "CITY": "AUSTIN", "STATE": "TX", "ZIP": "78750", "STFIP": "48", "CNTY": "48453", "NMCNTY": "Travis County", "LOCALE": "11", "LAT": 30.445057, "LON": -97.804267, "CBSA": "12420", "NMCBSA": "Austin-Round Rock, TX", "CBSATYPE": "1", "CSA": "N", "NMCSA": "N", "NECTA": "N", "NMNECTA": "N", "CD": "4810", "SLDL": "48047", "SLDU": "48014", "SCHOOLYEAR": "2018-2019" }, "geometry": { "type": "Point", "coordinates": [ -97.804274649999968, 30.445062248000056 ] } },
{ "type": "Feature", "properties": { "FID": 89810, "NCESSCH": "483808005611", "LEAID": "4838080", "NAME": "CEDAR VALLEY MIDDLE", "OPSTFIPS": "48", "STREET": "8139 RACINE TRL", "CITY": "AUSTIN", "STATE": "TX", "ZIP": "78717", "STFIP": "48", "CNTY": "48491", "NMCNTY": "Williamson County", "LOCALE": "21", "LAT": 30.492108, "LON": -97.734198, "CBSA": "12420", "NMCBSA": "Austin-Round Rock, TX", "CBSATYPE": "1", "CSA": "N", "NMCSA": "N", "NECTA": "N", "NMNECTA": "N", "CD": "4831", "SLDL": "48136", "SLDU": "48005", "SCHOOLYEAR": "2018-2019" }, "geometry": { "type": "Point", "coordinates": [ -97.734205634999967, 30.492113260000053 ] } },
{ "type": "Feature", "properties": { "FID": 89813, "NCESSCH": "483808005804", "LEAID": "4838080", "NAME": "PURPLE SAGE EL", "OPSTFIPS": "48", "STREET": "11801 TANGLEBRIAR TRL", "CITY": "AUSTIN", "STATE": "TX", "ZIP": "78750", "STFIP": "48", "CNTY": "48491", "NMCNTY": "Williamson County", "LOCALE": "11", "LAT": 30.457058, "LON": -97.820177, "CBSA": "12420", "NMCBSA": "Austin-Round Rock, TX", "CBSATYPE": "1", "CSA": "N", "NMCSA": "N", "NECTA": "N", "NMNECTA": "N", "CD": "4831", "SLDL": "48136", "SLDU": "48005", "SCHOOLYEAR": "2018-2019" }, "geometry": { "type": "Point", "coordinates": [ -97.82018465499999, 30.457063250000033 ] } },
{ "type": "Feature", "properties": { "FID": 89814, "NCESSCH": "483808005805", "LEAID": "4838080", "NAME": "WESTWOOD H S", "OPSTFIPS": "48", "STREET": "12400 MELLOW MEADOW DR", "CITY": "AUSTIN", "STATE": "TX", "ZIP": "78750", "STFIP": "48", "CNTY": "48491", "NMCNTY": "Williamson County", "LOCALE": "11", "LAT": 30.45603, "LON": -97.798071, "CBSA": "12420", "NMCBSA": "Austin-Round Rock, TX", "CBSATYPE": "1", "CSA": "N", "NMCSA": "N", "NECTA": "N", "NMNECTA": "N", "CD": "4831", "SLDL": "48136", "SLDU": "48005", "SCHOOLYEAR": "2018-2019" }, "geometry": { "type": "Point", "coordinates": [ -97.79807864899999, 30.45603525000007 ] } },
{ "type": "Feature", "properties": { "FID": 89815, "NCESSCH": "483808006034", "LEAID": "4838080", "NAME": "CANYON VISTA MIDDLE", "OPSTFIPS": "48", "STREET": "8455 SPICEWOOD SPRINGS RD", "CITY": "AUSTIN", "STATE": "TX", "ZIP": "78759", "STFIP": "48", "CNTY": "48453", "NMCNTY": "Travis County", "LOCALE": "11", "LAT": 30.428187, "LON": -97.784492, "CBSA": "12420", "NMCBSA": "Austin-Round Rock, TX", "CBSATYPE": "1", "CSA": "N", "NMCSA": "N", "NECTA": "N", "NMNECTA": "N", "CD": "4810", "SLDL": "48050", "SLDU": "48014", "SCHOOLYEAR": "2018-2019" }, "geometry": { "type": "Point", "coordinates": [ -97.784499643999936, 30.428192245000048 ] } },
{ "type": "Feature", "properties": { "FID": 89816, "NCESSCH": "483808006166", "LEAID": "4838080", "NAME": "WELLS BRANCH EL", "OPSTFIPS": "48", "STREET": "14650 MERRILTOWN DR", "CITY": "AUSTIN", "STATE": "TX", "ZIP": "78728", "STFIP": "48", "CNTY": "48453", "NMCNTY": "Travis County", "LOCALE": "21", "LAT": 30.444813, "LON": -97.686532, "CBSA": "12420", "NMCBSA": "Austin-Round Rock, TX", "CBSATYPE": "1", "CSA": "N", "NMCSA": "N", "NECTA": "N", "NMNECTA": "N", "CD": "4817", "SLDL": "48050", "SLDU": "48014", "SCHOOLYEAR": "2018-2019" }, "geometry": { "type": "Point", "coordinates": [ -97.686539620999952, 30.444818253000051 ] } },
{ "type": "Feature", "properties": { "FID": 89817, "NCESSCH": "483808006167", "LEAID": "4838080", "NAME": "LAUREL MOUNTAIN EL", "OPSTFIPS": "48", "STREET": "10111 DK RANCH RD", "CITY": "AUSTIN", "STATE": "TX", "ZIP": "78759", "STFIP": "48", "CNTY": "48453", "NMCNTY": "Travis County", "LOCALE": "11", "LAT": 30.413758, "LON": -97.780755, "CBSA": "12420", "NMCBSA": "Austin-Round Rock, TX", "CBSATYPE": "1", "CSA": "N", "NMCSA": "N", "NECTA": "N", "NMNECTA": "N", "CD": "4810", "SLDL": "48050", "SLDU": "48014", "SCHOOLYEAR": "2018-2019" }, "geometry": { "type": "Point", "coordinates": [ -97.780762641999956, 30.413763243000062 ] } },
{ "type": "Feature", "properties": { "FID": 89818, "NCESSCH": "483808006314", "LEAID": "4838080", "NAME": "POND SPRINGS EL", "OPSTFIPS": "48", "STREET": "7825 ELK HORN MTN TRL", "CITY": "AUSTIN", "STATE": "TX", "ZIP": "78729", "STFIP": "48", "CNTY": "48491", "NMCNTY": "Williamson County", "LOCALE": "11", "LAT": 30.446256, "LON": -97.764272, "CBSA": "12420", "NMCBSA": "Austin-Round Rock, TX", "CBSATYPE": "1", "CSA": "N", "NMCSA": "N", "NECTA": "N", "NMNECTA": "N", "CD": "4831", "SLDL": "48136", "SLDU": "48005", "SCHOOLYEAR": "2018-2019" }, "geometry": { "type": "Point", "coordinates": [ -97.764279639999984, 30.446261250000077 ] } },
{ "type": "Feature", "properties": { "FID": 89821, "NCESSCH": "483808006469", "LEAID": "4838080", "NAME": "MCNEIL H S", "OPSTFIPS": "48", "STREET": "5720 MCNEIL DR", "CITY": "AUSTIN", "STATE": "TX", "ZIP": "78729", "STFIP": "48", "CNTY": "48453", "NMCNTY": "Travis County", "LOCALE": "21", "LAT": 30.449115, "LON": -97.732611, "CBSA": "12420", "NMCBSA": "Austin-Round Rock, TX", "CBSATYPE": "1", "CSA": "N", "NMCSA": "N", "NECTA": "N", "NMNECTA": "N", "CD": "4817", "SLDL": "48050", "SLDU": "48014", "SCHOOLYEAR": "2018-2019" }, "geometry": { "type": "Point", "coordinates": [ -97.732618631999969, 30.449120252000057 ] } },
{ "type": "Feature", "properties": { "FID": 89822, "NCESSCH": "483808006470", "LEAID": "4838080", "NAME": "LIVE OAK EL", "OPSTFIPS": "48", "STREET": "8607 ANDERSON MILL RD", "CITY": "AUSTIN", "STATE": "TX", "ZIP": "78729", "STFIP": "48", "CNTY": "48491", "NMCNTY": "Williamson County", "LOCALE": "11", "LAT": 30.453703, "LON": -97.770795, "CBSA": "12420", "NMCBSA": "Austin-Round Rock, TX", "CBSATYPE": "1", "CSA": "N", "NMCSA": "N", "NECTA": "N", "NMNECTA": "N", "CD": "4831", "SLDL": "48136", "SLDU": "48005", "SCHOOLYEAR": "2018-2019" }, "geometry": { "type": "Point", "coordinates": [ -97.770802641999978, 30.453708251000023 ] } },
{ "type": "Feature", "properties": { "FID": 89824, "NCESSCH": "483808006606", "LEAID": "4838080", "NAME": "DEERPARK MIDDLE", "OPSTFIPS": "48", "STREET": "8849 ANDERSON MILL RD", "CITY": "AUSTIN", "STATE": "TX", "ZIP": "78729", "STFIP": "48", "CNTY": "48491", "NMCNTY": "Williamson County", "LOCALE": "11", "LAT": 30.452562, "LON": -97.772945, "CBSA": "12420", "NMCBSA": "Austin-Round Rock, TX", "CBSATYPE": "1", "CSA": "N", "NMCSA": "N", "NECTA": "N", "NMNECTA": "N", "CD": "4831", "SLDL": "48136", "SLDU": "48005", "SCHOOLYEAR": "2018-2019" }, "geometry": { "type": "Point", "coordinates": [ -97.77295264299994, 30.452567251000062 ] } },
{ "type": "Feature", "properties": { "FID": 89830, "NCESSCH": "483808008087", "LEAID": "4838080", "NAME": "CANYON CREEK EL", "OPSTFIPS": "48", "STREET": "10210 EMBER GLEN DR", "CITY": "AUSTIN", "STATE": "TX", "ZIP": "78726", "STFIP": "48", "CNTY": "48453", "NMCNTY": "Travis County", "LOCALE": "11", "LAT": 30.436935, "LON": -97.82479, "CBSA": "12420", "NMCBSA": "Austin-Round Rock, TX", "CBSATYPE": "1", "CSA": "N", "NMCSA": "N", "NECTA": "N", "NMNECTA": "N", "CD": "4810", "SLDL": "48047", "SLDU": "48014", "SCHOOLYEAR": "2018-2019" }, "geometry": { "type": "Point", "coordinates": [ -97.824797653999951, 30.436940245000073 ] } },
{ "type": "Feature", "properties": { "FID": 89840, "NCESSCH": "483808009461", "LEAID": "4838080", "NAME": "EL DAEP", "OPSTFIPS": "48", "STREET": "13414 BROADMEADE", "CITY": "AUSTIN", "STATE": "TX", "ZIP": "78729", "STFIP": "48", "CNTY": "48491", "NMCNTY": "Williamson County", "LOCALE": "21", "LAT": 30.493608, "LON": -97.750879, "CBSA": "12420", "NMCBSA": "Austin-Round Rock, TX", "CBSATYPE": "1", "CSA": "N", "NMCSA": "N", "NECTA": "N", "NMNECTA": "N", "CD": "4831", "SLDL": "48136", "SLDU": "48005", "SCHOOLYEAR": "2018-2019" }, "geometry": { "type": "Point", "coordinates": [ -97.750886638999987, 30.493613259000028 ] } },
{ "type": "Feature", "properties": { "FID": 89845, "NCESSCH": "483808011101", "LEAID": "4838080", "NAME": "JOE LEE JOHNSON EL", "OPSTFIPS": "48", "STREET": "2800 SAULS DR", "CITY": "AUSTIN", "STATE": "TX", "ZIP": "78728", "STFIP": "48", "CNTY": "48453", "NMCNTY": "Travis County", "LOCALE": "21", "LAT": 30.456579, "LON": -97.681743, "CBSA": "12420", "NMCBSA": "Austin-Round Rock, TX", "CBSATYPE": "1", "CSA": "N", "NMCSA": "N", "NECTA": "N", "NMNECTA": "N", "CD": "4817", "SLDL": "48050", "SLDU": "48014", "SCHOOLYEAR": "2018-2019" }, "geometry": { "type": "Point", "coordinates": [ -97.681750619999946, 30.456584255000053 ] } },
{ "type": "Feature", "properties": { "FID": 89848, "NCESSCH": "483808011104", "LEAID": "4838080", "NAME": "PATSY SOMMER EL", "OPSTFIPS": "48", "STREET": "16200 AVERY RANCH BLVD", "CITY": "AUSTIN", "STATE": "TX", "ZIP": "78717", "STFIP": "48", "CNTY": "48491", "NMCNTY": "Williamson County", "LOCALE": "11", "LAT": 30.504541, "LON": -97.751946, "CBSA": "12420", "NMCBSA": "Austin-Round Rock, TX", "CBSATYPE": "1", "CSA": "N", "NMCSA": "N", "NECTA": "N", "NMNECTA": "N", "CD": "4831", "SLDL": "48136", "SLDU": "48005", "SCHOOLYEAR": "2018-2019" }, "geometry": { "type": "Point", "coordinates": [ -97.751953639999954, 30.504546262000076 ] } },
{ "type": "Feature", "properties": { "FID": 89854, "NCESSCH": "483808012358", "LEAID": "4838080", "NAME": "ELSA ENGLAND EL", "OPSTFIPS": "48", "STREET": "8801 PEARSON RD", "CITY": "AUSTIN", "STATE": "TX", "ZIP": "78717", "STFIP": "48", "CNTY": "48491", "NMCNTY": "Williamson County", "LOCALE": "21", "LAT": 30.493608, "LON": -97.750879, "CBSA": "12420", "NMCBSA": "Austin-Round Rock, TX", "CBSATYPE": "1", "CSA": "N", "NMCSA": "N", "NECTA": "N", "NMNECTA": "N", "CD": "4831", "SLDL": "48136", "SLDU": "48005", "SCHOOLYEAR": "2018-2019" }, "geometry": { "type": "Point", "coordinates": [ -97.750886638999987, 30.493613259000028 ] } }
]
}
